{
"type": "FeatureCollection",
                                                                                
"features": [
{ "type": "Feature", "properties": { "MET_STOPID": "4148", "TRAMTRKID": "2360", "STOPNUMBER": "20", "ZONES": "Zone 1", "STOPSPEC": "Fitzroy Bowls Club - Stop 20", "RTUSESTOP": "11D", "UFI": 317884, "UFI_CR": "2014\/08\/28" }, "geometry": { "type": "Point", "coordinates": [ 144.980091, -37.788299 ] } },
{ "type": "Feature", "properties": { "MET_STOPID": "4149", "TRAMTRKID": "2361", "STOPNUMBER": "21", "ZONES": "Zone 1", "STOPSPEC": "Alfred Crescent - Stop 21", "RTUSESTOP": "11D", "UFI": 317885, "UFI_CR": "2014\/08\/28" }, "geometry": { "type": "Point", "coordinates": [ 144.981909, -37.785429 ] } },
{ "type": "Feature", "properties": { "MET_STOPID": "4150", "TRAMTRKID": "2362", "STOPNUMBER": "22", "ZONES": "Zone 1", "STOPSPEC": "Scotchmer Street - Stop 22", "RTUSESTOP": "11D", "UFI": 317886, "UFI_CR": "2014\/08\/28" }, "geometry": { "type": "Point", "coordinates": [ 144.983645, -37.783414 ] } },
{ "type": "Feature", "properties": { "MET_STOPID": "4151", "TRAMTRKID": "2363", "STOPNUMBER": "23", "ZONES": "Zone 1", "STOPSPEC": "Park Street - Stop 23", "RTUSESTOP": "11D", "UFI": 317887, "UFI_CR": "2014\/08\/28" }, "geometry": { "type": "Point", "coordinates": [ 144.985279, -37.781507 ] } },
{ "type": "Feature", "properties": { "MET_STOPID": "4152", "TRAMTRKID": "2364", "STOPNUMBER": "24", "ZONES": "Zone 1", "STOPSPEC": "Holden Street - Stop 24", "RTUSESTOP": "11D", "UFI": 317888, "UFI_CR": "2014\/08\/28" }, "geometry": { "type": "Point", "coordinates": [ 144.986517, -37.780067 ] } },
{ "type": "Feature", "properties": { "MET_STOPID": "4153", "TRAMTRKID": "2365", "STOPNUMBER": "25", "ZONES": "Zone 1", "STOPSPEC": "Miller Street - Stop 25", "RTUSESTOP": "11D", "UFI": 317889, "UFI_CR": "2014\/08\/28" }, "geometry": { "type": "Point", "coordinates": [ 144.988298, -37.778015 ] } },
{ "type": "Feature", "properties": { "MET_STOPID": "4154", "TRAMTRKID": "2366", "STOPNUMBER": "26", "ZONES": "Zone 1", "STOPSPEC": "Clarke Street - Stop 26", "RTUSESTOP": "11D", "UFI": 317890, "UFI_CR": "2014\/08\/28" }, "geometry": { "type": "Point", "coordinates": [ 144.989756, -37.775927 ] } },
{ "type": "Feature", "properties": { "MET_STOPID": "4155", "TRAMTRKID": "2367", "STOPNUMBER": "27", "ZONES": "Zone 1", "STOPSPEC": "Westbourne Grove - Stop 27", "RTUSESTOP": "11D", "UFI": 317891, "UFI_CR": "2014\/08\/28" }, "geometry": { "type": "Point", "coordinates": [ 144.99019, -37.773737 ] } },
{ "type": "Feature", "properties": { "MET_STOPID": "1083", "TRAMTRKID": "1342", "STOPNUMBER": "42", "ZONES": "Zone 1", "STOPSPEC": "Clyde Street - Stop 42", "RTUSESTOP": "57U, 82U", "UFI": 317892, "UFI_CR": "2014\/08\/28" }, "geometry": { "type": "Point", "coordinates": [ 144.898846, -37.7697 ] } },
{ "type": "Feature", "properties": { "MET_STOPID": "1185", "TRAMTRKID": "2145", "STOPNUMBER": "50", "ZONES": "Zone 1", "STOPSPEC": "Vincent Street - Stop 50", "RTUSESTOP": "5U", "UFI": 317893, "UFI_CR": "2014\/08\/28" }, "geometry": { "type": "Point", "coordinates": [ 145.04371, -37.864388 ] } },
{ "type": "Feature", "properties": { "MET_STOPID": "1291", "TRAMTRKID": "2146", "STOPNUMBER": "51", "ZONES": "Zone 1", "STOPSPEC": "Erica Avenue - Stop 51", "RTUSESTOP": "5U", "UFI": 317894, "UFI_CR": "2014\/08\/28" }, "geometry": { "type": "Point", "coordinates": [ 145.046997, -37.864783 ] } },
{ "type": "Feature", "properties": { "MET_STOPID": "1292", "TRAMTRKID": "2438", "STOPNUMBER": "38", "ZONES": "Zone 1", "STOPSPEC": "Renown Street - Stop 38", "RTUSESTOP": "19D", "UFI": 317895, "UFI_CR": "2014\/08\/28" }, "geometry": { "type": "Point", "coordinates": [ 144.96426, -37.73162 ] } },
{ "type": "Feature", "properties": { "MET_STOPID": "378", "TRAMTRKID": "2439", "STOPNUMBER": "39", "ZONES": "Zone 1", "STOPSPEC": "Mercy College - Stop 39", "RTUSESTOP": "19D", "UFI": 317848, "UFI_CR": "2014\/08\/28" }, "geometry": { "type": "Point", "coordinates": [ 144.963752, -37.730435 ] } },
{ "type": "Feature", "properties": { "MET_STOPID": "398", "TRAMTRKID": "2136", "STOPNUMBER": "41", "ZONES": "Zone 1", "STOPSPEC": "Armadale Street - Stop 41", "RTUSESTOP": "5U", "UFI": 317849, "UFI_CR": "2014\/08\/28" }, "geometry": { "type": "Point", "coordinates": [ 145.017791, -37.86094 ] } },
{ "type": "Feature", "properties": { "MET_STOPID": "409", "TRAMTRKID": "2137", "STOPNUMBER": "42", "ZONES": "Zone 1", "STOPSPEC": "Kooyong Road - Stop 42", "RTUSESTOP": "5U", "UFI": 317850, "UFI_CR": "2014\/08\/28" }, "geometry": { "type": "Point", "coordinates": [ 145.019899, -37.861342 ] } },
{ "type": "Feature", "properties": { "MET_STOPID": "940", "TRAMTRKID": "2138", "STOPNUMBER": "43", "ZONES": "Zone 1", "STOPSPEC": "Egerton Road - Stop 43", "RTUSESTOP": "5U", "UFI": 317851, "UFI_CR": "2014\/08\/28" }, "geometry": { "type": "Point", "coordinates": [ 145.022698, -37.861698 ] } },
{ "type": "Feature", "properties": { "MET_STOPID": "946", "TRAMTRKID": "2139", "STOPNUMBER": "44", "ZONES": "Zone 1", "STOPSPEC": "Duncraig Avenue - Stop 44", "RTUSESTOP": "5U", "UFI": 317852, "UFI_CR": "2014\/08\/28" }, "geometry": { "type": "Point", "coordinates": [ 145.025472, -37.862064 ] } },
{ "type": "Feature", "properties": { "MET_STOPID": "947", "TRAMTRKID": "2140", "STOPNUMBER": "45", "ZONES": "Zone 1", "STOPSPEC": "Glenferrie Road - Stop 45", "RTUSESTOP": "5U", "UFI": 317853, "UFI_CR": "2014\/08\/28" }, "geometry": { "type": "Point", "coordinates": [ 145.02851, -37.862457 ] } },
{ "type": "Feature", "properties": { "MET_STOPID": "950", "TRAMTRKID": "2141", "STOPNUMBER": "46", "ZONES": "Zone 1", "STOPSPEC": "Nicholls Street - Stop 46", "RTUSESTOP": "5U", "UFI": 317854, "UFI_CR": "2014\/08\/28" }, "geometry": { "type": "Point", "coordinates": [ 145.031391, -37.862829 ] } },
{ "type": "Feature", "properties": { "MET_STOPID": "955", "TRAMTRKID": "2142", "STOPNUMBER": "47", "ZONES": "Zone 1", "STOPSPEC": "Cabrini Hospital - Stop 47", "RTUSESTOP": "5U", "UFI": 317855, "UFI_CR": "2014\/08\/28" }, "geometry": { "type": "Point", "coordinates": [ 145.033855, -37.863152 ] } },
{ "type": "Feature", "properties": { "MET_STOPID": "968", "TRAMTRKID": "2143", "STOPNUMBER": "48", "ZONES": "Zone 1", "STOPSPEC": "Dixon Street - Stop 48", "RTUSESTOP": "5U", "UFI": 317856, "UFI_CR": "2014\/08\/28" }, "geometry": { "type": "Point", "coordinates": [ 145.037087, -37.863573 ] } },
{ "type": "Feature", "properties": { "MET_STOPID": "980", "TRAMTRKID": "2144", "STOPNUMBER": "49", "ZONES": "Zone 1", "STOPSPEC": "Tooronga Road - Stop 49", "RTUSESTOP": "5U", "UFI": 317857, "UFI_CR": "2014\/08\/28" }, "geometry": { "type": "Point", "coordinates": [ 145.04028, -37.863986 ] } },
{ "type": "Feature", "properties": { "MET_STOPID": "992", "TRAMTRKID": "1341", "STOPNUMBER": "41", "ZONES": "Zone 1", "STOPSPEC": "Maribyrnong Park - Stop 41", "RTUSESTOP": "57U, 82U", "UFI": 317858, "UFI_CR": "2014\/08\/28" }, "geometry": { "type": "Point", "coordinates": [ 144.902055, -37.770083 ] } },
{ "type": "Feature", "properties": { "MET_STOPID": "4084", "TRAMTRKID": "1396", "STOPNUMBER": "129", "ZONES": "Zone 1", "STOPSPEC": "Park Street - Stop 129", "RTUSESTOP": "12D", "UFI": 317859, "UFI_CR": "2014\/08\/28" }, "geometry": { "type": "Point", "coordinates": [ 144.961591, -37.835433 ] } },
{ "type": "Feature", "properties": { "MET_STOPID": "4124", "TRAMTRKID": "1394", "STOPNUMBER": "127", "ZONES": "Zone 1", "STOPSPEC": "York Street - Stop 127", "RTUSESTOP": "12D", "UFI": 317860, "UFI_CR": "2014\/08\/28" }, "geometry": { "type": "Point", "coordinates": [ 144.959527, -37.830983 ] } },
{ "type": "Feature", "properties": { "MET_STOPID": "4125", "TRAMTRKID": "1393", "STOPNUMBER": "126", "ZONES": "Zone 1", "STOPSPEC": "City Road - Stop 126", "RTUSESTOP": "12D", "UFI": 317861, "UFI_CR": "2014\/08\/28" }, "geometry": { "type": "Point", "coordinates": [ 144.957918, -37.827308 ] } },
{ "type": "Feature", "properties": { "MET_STOPID": "4126", "TRAMTRKID": "1180", "STOPNUMBER": "130a", "ZONES": "Zone 1", "STOPSPEC": "Raglan Street - Stop 130a", "RTUSESTOP": "12D", "UFI": 317862, "UFI_CR": "2014\/08\/28" }, "geometry": { "type": "Point", "coordinates": [ 144.962584, -37.83761 ] } },
{ "type": "Feature", "properties": { "MET_STOPID": "4127", "TRAMTRKID": "1397", "STOPNUMBER": "130", "ZONES": "Zone 1", "STOPSPEC": "Clarendon Street - Stop 130", "RTUSESTOP": "12D", "UFI": 317863, "UFI_CR": "2014\/08\/28" }, "geometry": { "type": "Point", "coordinates": [ 144.963211, -37.839329 ] } },
{ "type": "Feature", "properties": { "MET_STOPID": "4128", "TRAMTRKID": "1398", "STOPNUMBER": "131", "ZONES": "Zone 1", "STOPSPEC": "Aughtie Drive - Stop 131", "RTUSESTOP": "12D", "UFI": 317864, "UFI_CR": "2014\/08\/28" }, "geometry": { "type": "Point", "coordinates": [ 144.961044, -37.840751 ] } },
{ "type": "Feature", "properties": { "MET_STOPID": "4129", "TRAMTRKID": "1399", "STOPNUMBER": "132", "ZONES": "Zone 1", "STOPSPEC": "Kerferd Road - Stop 132", "RTUSESTOP": "12D", "UFI": 317865, "UFI_CR": "2014\/08\/28" }, "geometry": { "type": "Point", "coordinates": [ 144.959411, -37.842597 ] } },
{ "type": "Feature", "properties": { "MET_STOPID": "4130", "TRAMTRKID": "1400", "STOPNUMBER": "133", "ZONES": "Zone 1", "STOPSPEC": "Canterbury Road - Stop 133", "RTUSESTOP": "12D", "UFI": 317866, "UFI_CR": "2014\/08\/28" }, "geometry": { "type": "Point", "coordinates": [ 144.960134, -37.84407 ] } },
{ "type": "Feature", "properties": { "MET_STOPID": "4131", "TRAMTRKID": "1401", "STOPNUMBER": "134", "ZONES": "Zone 1", "STOPSPEC": "Carter Street - Stop 134", "RTUSESTOP": "12D", "UFI": 317867, "UFI_CR": "2014\/08\/28" }, "geometry": { "type": "Point", "coordinates": [ 144.958922, -37.845611 ] } },
{ "type": "Feature", "properties": { "MET_STOPID": "4132", "TRAMTRKID": "1402", "STOPNUMBER": "135", "ZONES": "Zone 1", "STOPSPEC": "Richardson Street - Stop 135", "RTUSESTOP": "12D", "UFI": 317868, "UFI_CR": "2014\/08\/28" }, "geometry": { "type": "Point", "coordinates": [ 144.957404, -37.847409 ] } },
{ "type": "Feature", "properties": { "MET_STOPID": "4133", "TRAMTRKID": "1403", "STOPNUMBER": "136", "ZONES": "Zone 1", "STOPSPEC": "Mills Street - Stop 136", "RTUSESTOP": "12D", "UFI": 317869, "UFI_CR": "2014\/08\/28" }, "geometry": { "type": "Point", "coordinates": [ 144.95608, -37.84974 ] } },
{ "type": "Feature", "properties": { "MET_STOPID": "4134", "TRAMTRKID": "1404", "STOPNUMBER": "137", "ZONES": "Zone 1", "STOPSPEC": "Harold Street - Stop 137", "RTUSESTOP": "12D", "UFI": 317870, "UFI_CR": "2014\/08\/28" }, "geometry": { "type": "Point", "coordinates": [ 144.959213, -37.851362 ] } },
{ "type": "Feature", "properties": { "MET_STOPID": "4135", "TRAMTRKID": "1410", "STOPNUMBER": "143", "ZONES": "Zone 1", "STOPSPEC": "Fitzroy Street - Stop 143", "RTUSESTOP": "12D, 12U", "UFI": 317871, "UFI_CR": "2014\/08\/28" }, "geometry": { "type": "Point", "coordinates": [ 144.974325, -37.860935 ] } },
{ "type": "Feature", "properties": { "MET_STOPID": "1575", "TRAMTRKID": "1147", "STOPNUMBER": "52", "ZONES": "Zone 1", "STOPSPEC": "Malvern - Stop 52", "RTUSESTOP": "5D, 5U", "UFI": 317896, "UFI_CR": "2014\/08\/28" }, "geometry": { "type": "Point", "coordinates": [ 145.050069, -37.865076 ] } },
{ "type": "Feature", "properties": { "MET_STOPID": "1696", "TRAMTRKID": "1146", "STOPNUMBER": "51", "ZONES": "Zone 1", "STOPSPEC": "Nott Street - Stop 51", "RTUSESTOP": "5D", "UFI": 317897, "UFI_CR": "2014\/08\/28" }, "geometry": { "type": "Point", "coordinates": [ 145.046571, -37.864616 ] } },
{ "type": "Feature", "properties": { "MET_STOPID": "1784", "TRAMTRKID": "2437", "STOPNUMBER": "37", "ZONES": "Zone 1", "STOPSPEC": "Gaffney Street - Stop 37", "RTUSESTOP": "19D", "UFI": 317898, "UFI_CR": "2014\/08\/28" }, "geometry": { "type": "Point", "coordinates": [ 144.965318, -37.734099 ] } },
{ "type": "Feature", "properties": { "MET_STOPID": "1789", "TRAMTRKID": "1145", "STOPNUMBER": "50", "ZONES": "Zone 1", "STOPSPEC": "Anderson Street - Stop 50", "RTUSESTOP": "5D", "UFI": 317899, "UFI_CR": "2014\/08\/28" }, "geometry": { "type": "Point", "coordinates": [ 145.043379, -37.86423 ] } },
{ "type": "Feature", "properties": { "MET_STOPID": "2113", "TRAMTRKID": "2436", "STOPNUMBER": "36", "ZONES": "Zone 1", "STOPSPEC": "Rogers Street - Stop 36", "RTUSESTOP": "19D", "UFI": 317900, "UFI_CR": "2014\/08\/28" }, "geometry": { "type": "Point", "coordinates": [ 144.966051, -37.73584 ] } },
{ "type": "Feature", "properties": { "MET_STOPID": "2232", "TRAMTRKID": "1144", "STOPNUMBER": "49", "ZONES": "Zone 1", "STOPSPEC": "Tooronga Road - Stop 49", "RTUSESTOP": "5D", "UFI": 317901, "UFI_CR": "2014\/08\/28" }, "geometry": { "type": "Point", "coordinates": [ 145.040025, -37.863833 ] } },
{ "type": "Feature", "properties": { "MET_STOPID": "4039", "TRAMTRKID": "1395", "STOPNUMBER": "128", "ZONES": "Zone 1", "STOPSPEC": "Dorcas Street - Stop 128", "RTUSESTOP": "12D", "UFI": 317902, "UFI_CR": "2014\/08\/28" }, "geometry": { "type": "Point", "coordinates": [ 144.960538, -37.833156 ] } },
{ "type": "Feature", "properties": { "MET_STOPID": "4167", "TRAMTRKID": "2379", "STOPNUMBER": "40", "ZONES": "Zone 1", "STOPSPEC": "Bell Street - Stop 40", "RTUSESTOP": "11D", "UFI": 317903, "UFI_CR": "2014\/08\/28" }, "geometry": { "type": "Point", "coordinates": [ 144.989056, -37.744087 ] } },
{ "type": "Feature", "properties": { "MET_STOPID": "4168", "TRAMTRKID": "2380", "STOPNUMBER": "41", "ZONES": "Zone 1", "STOPSPEC": "Bruce Street - Stop 41", "RTUSESTOP": "11D", "UFI": 317904, "UFI_CR": "2014\/08\/28" }, "geometry": { "type": "Point", "coordinates": [ 144.989495, -37.741312 ] } },
{ "type": "Feature", "properties": { "MET_STOPID": "4169", "TRAMTRKID": "2381", "STOPNUMBER": "42", "ZONES": "Zone 1", "STOPSPEC": "Cramer Street - Stop 42", "RTUSESTOP": "11D", "UFI": 317905, "UFI_CR": "2014\/08\/28" }, "geometry": { "type": "Point", "coordinates": [ 144.989836, -37.739099 ] } },
{ "type": "Feature", "properties": { "MET_STOPID": "4170", "TRAMTRKID": "2382", "STOPNUMBER": "43", "ZONES": "Zone 1", "STOPSPEC": "Murray Road - Stop 43", "RTUSESTOP": "11D", "UFI": 317906, "UFI_CR": "2014\/08\/28" }, "geometry": { "type": "Point", "coordinates": [ 144.990216, -37.736716 ] } },
{ "type": "Feature", "properties": { "MET_STOPID": "4171", "TRAMTRKID": "2383", "STOPNUMBER": "44", "ZONES": "Zone 1", "STOPSPEC": "Cooper Street - Stop 44", "RTUSESTOP": "11D", "UFI": 317907, "UFI_CR": "2014\/08\/28" }, "geometry": { "type": "Point", "coordinates": [ 144.990587, -37.73454 ] } },
{ "type": "Feature", "properties": { "MET_STOPID": "4136", "TRAMTRKID": "1409", "STOPNUMBER": "142", "ZONES": "Zone 1", "STOPSPEC": "Mary Street - Stop 142", "RTUSESTOP": "12D", "UFI": 317872, "UFI_CR": "2014\/08\/28" }, "geometry": { "type": "Point", "coordinates": [ 144.973195, -37.859792 ] } },
{ "type": "Feature", "properties": { "MET_STOPID": "4137", "TRAMTRKID": "1408", "STOPNUMBER": "141", "ZONES": "Zone 1", "STOPSPEC": "Deakin Street - Stop 141", "RTUSESTOP": "12D", "UFI": 317873, "UFI_CR": "2014\/08\/28" }, "geometry": { "type": "Point", "coordinates": [ 144.970746, -37.857475 ] } },
{ "type": "Feature", "properties": { "MET_STOPID": "4138", "TRAMTRKID": "1407", "STOPNUMBER": "140", "ZONES": "Zone 1", "STOPSPEC": "Fraser Street - Stop 140", "RTUSESTOP": "12D", "UFI": 317874, "UFI_CR": "2014\/08\/28" }, "geometry": { "type": "Point", "coordinates": [ 144.967424, -37.85576 ] } },
{ "type": "Feature", "properties": { "MET_STOPID": "4139", "TRAMTRKID": "1406", "STOPNUMBER": "139", "ZONES": "Zone 1", "STOPSPEC": "Langridge Street - Stop 139", "RTUSESTOP": "12D", "UFI": 317875, "UFI_CR": "2014\/08\/28" }, "geometry": { "type": "Point", "coordinates": [ 144.965591, -37.854784 ] } },
{ "type": "Feature", "properties": { "MET_STOPID": "4140", "TRAMTRKID": "1405", "STOPNUMBER": "138", "ZONES": "Zone 1", "STOPSPEC": "Armstrong Street - Stop 138", "RTUSESTOP": "12D", "UFI": 317876, "UFI_CR": "2014\/08\/28" }, "geometry": { "type": "Point", "coordinates": [ 144.962447, -37.853071 ] } },
{ "type": "Feature", "properties": { "MET_STOPID": "4141", "TRAMTRKID": "2353", "STOPNUMBER": "13", "ZONES": "Zone 1", "STOPSPEC": "Gertrude Street - Stop 13", "RTUSESTOP": "11D", "UFI": 317877, "UFI_CR": "2014\/08\/28" }, "geometry": { "type": "Point", "coordinates": [ 144.977115, -37.805852 ] } },
{ "type": "Feature", "properties": { "MET_STOPID": "4142", "TRAMTRKID": "2354", "STOPNUMBER": "14", "ZONES": "Zone 1", "STOPSPEC": "Hanover Street - Stop 14", "RTUSESTOP": "11D", "UFI": 317878, "UFI_CR": "2014\/08\/28" }, "geometry": { "type": "Point", "coordinates": [ 144.977615, -37.802837 ] } },
{ "type": "Feature", "properties": { "MET_STOPID": "4143", "TRAMTRKID": "2355", "STOPNUMBER": "15", "ZONES": "Zone 1", "STOPSPEC": "Bell Street - Stop 15", "RTUSESTOP": "11D", "UFI": 317879, "UFI_CR": "2014\/08\/28" }, "geometry": { "type": "Point", "coordinates": [ 144.978036, -37.800441 ] } },
{ "type": "Feature", "properties": { "MET_STOPID": "4144", "TRAMTRKID": "2356", "STOPNUMBER": "16", "ZONES": "Zone 1", "STOPSPEC": "Johnston Street - Stop 16", "RTUSESTOP": "11D", "UFI": 317880, "UFI_CR": "2014\/08\/28" }, "geometry": { "type": "Point", "coordinates": [ 144.978369, -37.798527 ] } },
{ "type": "Feature", "properties": { "MET_STOPID": "4145", "TRAMTRKID": "2357", "STOPNUMBER": "17", "ZONES": "Zone 1", "STOPSPEC": "Leicester Street - Stop 17", "RTUSESTOP": "11D", "UFI": 317881, "UFI_CR": "2014\/08\/28" }, "geometry": { "type": "Point", "coordinates": [ 144.978855, -37.795627 ] } },
{ "type": "Feature", "properties": { "MET_STOPID": "4146", "TRAMTRKID": "2358", "STOPNUMBER": "18", "ZONES": "Zone 1", "STOPSPEC": "Alexandra Parade - Stop 18", "RTUSESTOP": "11D, 958o", "UFI": 317882, "UFI_CR": "2014\/08\/28" }, "geometry": { "type": "Point", "coordinates": [ 144.979186, -37.793628 ] } },
{ "type": "Feature", "properties": { "MET_STOPID": "4147", "TRAMTRKID": "2359", "STOPNUMBER": "19", "ZONES": "Zone 1", "STOPSPEC": "Newry Street - Stop 19", "RTUSESTOP": "11D", "UFI": 317883, "UFI_CR": "2014\/08\/28" }, "geometry": { "type": "Point", "coordinates": [ 144.979664, -37.790801 ] } },
{ "type": "Feature", "properties": { "MET_STOPID": "4197", "TRAMTRKID": "2849", "STOPNUMBER": "49", "ZONES": "Zone 1", "STOPSPEC": "Murray Road - Stop 49", "RTUSESTOP": "86D", "UFI": 317932, "UFI_CR": "2014\/08\/28" }, "geometry": { "type": "Point", "coordinates": [ 145.01137, -37.73889 ] } },
{ "type": "Feature", "properties": { "MET_STOPID": "4198", "TRAMTRKID": "2848", "STOPNUMBER": "48", "ZONES": "Zone 1", "STOPSPEC": "Gower Street - Stop 48", "RTUSESTOP": "86D", "UFI": 317933, "UFI_CR": "2014\/08\/28" }, "geometry": { "type": "Point", "coordinates": [ 145.00959, -37.74115 ] } },
{ "type": "Feature", "properties": { "MET_STOPID": "4199", "TRAMTRKID": "2847", "STOPNUMBER": "47", "ZONES": "Zone 1", "STOPSPEC": "David Street - Stop 47", "RTUSESTOP": "86D", "UFI": 317934, "UFI_CR": "2014\/08\/28" }, "geometry": { "type": "Point", "coordinates": [ 145.00796, -37.74321 ] } },
{ "type": "Feature", "properties": { "MET_STOPID": "4200", "TRAMTRKID": "2846", "STOPNUMBER": "46", "ZONES": "Zone 1", "STOPSPEC": "East Preston Tram Depot - Stop 46", "RTUSESTOP": "86D", "UFI": 317935, "UFI_CR": "2014\/08\/28" }, "geometry": { "type": "Point", "coordinates": [ 145.00665, -37.74489 ] } },
{ "type": "Feature", "properties": { "MET_STOPID": "4156", "TRAMTRKID": "2368", "STOPNUMBER": "28", "ZONES": "Zone 1", "STOPSPEC": "Sumner Avenue - Stop 28", "RTUSESTOP": "11D", "UFI": 317936, "UFI_CR": "2014\/08\/28" }, "geometry": { "type": "Point", "coordinates": [ 144.990636, -37.77157 ] } },
{ "type": "Feature", "properties": { "MET_STOPID": "4157", "TRAMTRKID": "2369", "STOPNUMBER": "29", "ZONES": "Zone 1", "STOPSPEC": "Arthurton Road - Stop 29", "RTUSESTOP": "11D", "UFI": 317937, "UFI_CR": "2014\/08\/28" }, "geometry": { "type": "Point", "coordinates": [ 144.991241, -37.768553 ] } },
{ "type": "Feature", "properties": { "MET_STOPID": "4158", "TRAMTRKID": "2370", "STOPNUMBER": "30", "ZONES": "Zone 1", "STOPSPEC": "Gladstone Avenue - Stop 30", "RTUSESTOP": "11D", "UFI": 317938, "UFI_CR": "2014\/08\/28" }, "geometry": { "type": "Point", "coordinates": [ 144.991914, -37.765266 ] } },
{ "type": "Feature", "properties": { "MET_STOPID": "4159", "TRAMTRKID": "2371", "STOPNUMBER": "31", "ZONES": "Zone 1", "STOPSPEC": "Gadd Street - Stop 31", "RTUSESTOP": "11D", "UFI": 317939, "UFI_CR": "2014\/08\/28" }, "geometry": { "type": "Point", "coordinates": [ 144.992514, -37.762126 ] } },
{ "type": "Feature", "properties": { "MET_STOPID": "4160", "TRAMTRKID": "2372", "STOPNUMBER": "32", "ZONES": "Zone 1", "STOPSPEC": "Normanby Avenue - Stop 32", "RTUSESTOP": "11D", "UFI": 317940, "UFI_CR": "2014\/08\/28" }, "geometry": { "type": "Point", "coordinates": [ 144.993163, -37.758908 ] } },
{ "type": "Feature", "properties": { "MET_STOPID": "4161", "TRAMTRKID": "2373", "STOPNUMBER": "33", "ZONES": "Zone 1", "STOPSPEC": "Hutton Street - Stop 33", "RTUSESTOP": "11D", "UFI": 317941, "UFI_CR": "2014\/08\/28" }, "geometry": { "type": "Point", "coordinates": [ 144.993877, -37.755348 ] } },
{ "type": "Feature", "properties": { "MET_STOPID": "4162", "TRAMTRKID": "2374", "STOPNUMBER": "34", "ZONES": "Zone 1", "STOPSPEC": "Miller Street - Stop 34", "RTUSESTOP": "11D", "UFI": 317942, "UFI_CR": "2014\/08\/28" }, "geometry": { "type": "Point", "coordinates": [ 144.994888, -37.752035 ] } },
{ "type": "Feature", "properties": { "MET_STOPID": "4163", "TRAMTRKID": "2375", "STOPNUMBER": "36", "ZONES": "Zone 1", "STOPSPEC": "Bracken Avenue - Stop 36", "RTUSESTOP": "11D", "UFI": 317943, "UFI_CR": "2014\/08\/28" }, "geometry": { "type": "Point", "coordinates": [ 144.991319, -37.751441 ] } },
{ "type": "Feature", "properties": { "MET_STOPID": "4164", "TRAMTRKID": "2376", "STOPNUMBER": "37", "ZONES": "Zone 1", "STOPSPEC": "Miller Street - Stop 37", "RTUSESTOP": "11D", "UFI": 317944, "UFI_CR": "2014\/08\/28" }, "geometry": { "type": "Point", "coordinates": [ 144.987983, -37.75068 ] } },
{ "type": "Feature", "properties": { "MET_STOPID": "4165", "TRAMTRKID": "2377", "STOPNUMBER": "38", "ZONES": "Zone 1", "STOPSPEC": "Oakover Road - Stop 38", "RTUSESTOP": "11D", "UFI": 317945, "UFI_CR": "2014\/08\/28" }, "geometry": { "type": "Point", "coordinates": [ 144.98835, -37.748413 ] } },
{ "type": "Feature", "properties": { "MET_STOPID": "4166", "TRAMTRKID": "2378", "STOPNUMBER": "39", "ZONES": "Zone 1", "STOPSPEC": "Latona Avenue - Stop 39", "RTUSESTOP": "11D", "UFI": 317946, "UFI_CR": "2014\/08\/28" }, "geometry": { "type": "Point", "coordinates": [ 144.988805, -37.745635 ] } },
{ "type": "Feature", "properties": { "MET_STOPID": "4334", "TRAMTRKID": "2398", "STOPNUMBER": "131", "ZONES": "Zone 1", "STOPSPEC": "Melbourne Aquatic Centre - Stop 131", "RTUSESTOP": "12U", "UFI": 317947, "UFI_CR": "2014\/08\/28" }, "geometry": { "type": "Point", "coordinates": [ 144.961454, -37.84058 ] } },
{ "type": "Feature", "properties": { "MET_STOPID": "4384", "TRAMTRKID": "2399", "STOPNUMBER": "132", "ZONES": "Zone 1", "STOPSPEC": "Canterbury Road - Stop 132", "RTUSESTOP": "12U", "UFI": 317948, "UFI_CR": "2014\/08\/28" }, "geometry": { "type": "Point", "coordinates": [ 144.959519, -37.842286 ] } },
{ "type": "Feature", "properties": { "MET_STOPID": "4440", "TRAMTRKID": "2400", "STOPNUMBER": "133", "ZONES": "Zone 1", "STOPSPEC": "Canterbury Road - Stop 133", "RTUSESTOP": "12U", "UFI": 317949, "UFI_CR": "2014\/08\/28" }, "geometry": { "type": "Point", "coordinates": [ 144.960064, -37.844503 ] } },
{ "type": "Feature", "properties": { "MET_STOPID": "4441", "TRAMTRKID": "2401", "STOPNUMBER": "134", "ZONES": "Zone 1", "STOPSPEC": "Carter Street - Stop 134", "RTUSESTOP": "12U", "UFI": 317950, "UFI_CR": "2014\/08\/28" }, "geometry": { "type": "Point", "coordinates": [ 144.959102, -37.845661 ] } },
{ "type": "Feature", "properties": { "MET_STOPID": "4442", "TRAMTRKID": "2402", "STOPNUMBER": "135", "ZONES": "Zone 1", "STOPSPEC": "Richardson Street - Stop 135", "RTUSESTOP": "12U", "UFI": 317951, "UFI_CR": "2014\/08\/28" }, "geometry": { "type": "Point", "coordinates": [ 144.957807, -37.847224 ] } },
{ "type": "Feature", "properties": { "MET_STOPID": "4443", "TRAMTRKID": "2403", "STOPNUMBER": "136", "ZONES": "Zone 1", "STOPSPEC": "Danks Street - Stop 136", "RTUSESTOP": "12U", "UFI": 317952, "UFI_CR": "2014\/08\/28" }, "geometry": { "type": "Point", "coordinates": [ 144.956072, -37.849322 ] } },
{ "type": "Feature", "properties": { "MET_STOPID": "4444", "TRAMTRKID": "2404", "STOPNUMBER": "137", "ZONES": "Zone 1", "STOPSPEC": "Harold Street - Stop 137", "RTUSESTOP": "12U", "UFI": 317953, "UFI_CR": "2014\/08\/28" }, "geometry": { "type": "Point", "coordinates": [ 144.958993, -37.851021 ] } },
{ "type": "Feature", "properties": { "MET_STOPID": "4445", "TRAMTRKID": "2409", "STOPNUMBER": "142", "ZONES": "Zone 1", "STOPSPEC": "Mary Street - Stop 142", "RTUSESTOP": "12U", "UFI": 317954, "UFI_CR": "2014\/08\/28" }, "geometry": { "type": "Point", "coordinates": [ 144.97307, -37.859474 ] } },
{ "type": "Feature", "properties": { "MET_STOPID": "4446", "TRAMTRKID": "2408", "STOPNUMBER": "141", "ZONES": "Zone 1", "STOPSPEC": "Cowderoy Street - Stop 141", "RTUSESTOP": "12U", "UFI": 317955, "UFI_CR": "2014\/08\/28" }, "geometry": { "type": "Point", "coordinates": [ 144.970551, -37.857209 ] } },
{ "type": "Feature", "properties": { "MET_STOPID": "4172", "TRAMTRKID": "2384", "STOPNUMBER": "45", "ZONES": "Zone 1", "STOPSPEC": "Jacka Street - Stop 45", "RTUSESTOP": "11D", "UFI": 317908, "UFI_CR": "2014\/08\/28" }, "geometry": { "type": "Point", "coordinates": [ 144.990851, -37.732991 ] } },
{ "type": "Feature", "properties": { "MET_STOPID": "4173", "TRAMTRKID": "2385", "STOPNUMBER": "46", "ZONES": "Zone 1", "STOPSPEC": "McNamara Street - Stop 46", "RTUSESTOP": "11D", "UFI": 317909, "UFI_CR": "2014\/08\/28" }, "geometry": { "type": "Point", "coordinates": [ 144.991295, -37.730363 ] } },
{ "type": "Feature", "properties": { "MET_STOPID": "4174", "TRAMTRKID": "1871", "STOPNUMBER": "71", "ZONES": "Zone 1, Zone 2", "STOPSPEC": "Bundoora RMIT - Stop 71", "RTUSESTOP": "86D, 86U", "UFI": 317910, "UFI_CR": "2014\/08\/28" }, "geometry": { "type": "Point", "coordinates": [ 145.06947, -37.67911 ] } },
{ "type": "Feature", "properties": { "MET_STOPID": "4175", "TRAMTRKID": "2870", "STOPNUMBER": "70", "ZONES": "Zone 1, Zone 2", "STOPSPEC": "Clements Drive - Stop 70", "RTUSESTOP": "86D", "UFI": 317911, "UFI_CR": "2014\/08\/28" }, "geometry": { "type": "Point", "coordinates": [ 145.06891, -37.68195 ] } },
{ "type": "Feature", "properties": { "MET_STOPID": "4176", "TRAMTRKID": "2869", "STOPNUMBER": "69", "ZONES": "Zone 1, Zone 2", "STOPSPEC": "Taunton Drive - Stop 69", "RTUSESTOP": "86D", "UFI": 317912, "UFI_CR": "2014\/08\/28" }, "geometry": { "type": "Point", "coordinates": [ 145.06678, -37.68788 ] } },
{ "type": "Feature", "properties": { "MET_STOPID": "4177", "TRAMTRKID": "2868", "STOPNUMBER": "68", "ZONES": "Zone 1, Zone 2", "STOPSPEC": "Greenhills Road - Stop 68", "RTUSESTOP": "86D", "UFI": 317913, "UFI_CR": "2014\/08\/28" }, "geometry": { "type": "Point", "coordinates": [ 145.06324, -37.69155 ] } },
{ "type": "Feature", "properties": { "MET_STOPID": "4178", "TRAMTRKID": "2867", "STOPNUMBER": "67", "ZONES": "Zone 1, Zone 2", "STOPSPEC": "Bundoora Square SC - Stop 67", "RTUSESTOP": "86D", "UFI": 317914, "UFI_CR": "2014\/08\/28" }, "geometry": { "type": "Point", "coordinates": [ 145.05966, -37.69553 ] } },
{ "type": "Feature", "properties": { "MET_STOPID": "4179", "TRAMTRKID": "2866", "STOPNUMBER": "66", "ZONES": "Zone 1, Zone 2", "STOPSPEC": "Settlement Road - Stop 66", "RTUSESTOP": "86D", "UFI": 317915, "UFI_CR": "2014\/08\/28" }, "geometry": { "type": "Point", "coordinates": [ 145.05885, -37.69796 ] } },
{ "type": "Feature", "properties": { "MET_STOPID": "4180", "TRAMTRKID": "2865", "STOPNUMBER": "65", "ZONES": "Zone 1, Zone 2", "STOPSPEC": "Grimshaw Street - Stop 65", "RTUSESTOP": "86D", "UFI": 317916, "UFI_CR": "2014\/08\/28" }, "geometry": { "type": "Point", "coordinates": [ 145.05818, -37.70012 ] } },
{ "type": "Feature", "properties": { "MET_STOPID": "4181", "TRAMTRKID": "2864", "STOPNUMBER": "64", "ZONES": "Zone 1, Zone 2", "STOPSPEC": "Mount Cooper Drive - Stop 64", "RTUSESTOP": "86D", "UFI": 317917, "UFI_CR": "2014\/08\/28" }, "geometry": { "type": "Point", "coordinates": [ 145.05609, -37.70356 ] } },
{ "type": "Feature", "properties": { "MET_STOPID": "4182", "TRAMTRKID": "2863", "STOPNUMBER": "63", "ZONES": "Zone 1, Zone 2", "STOPSPEC": "Greenwood Drive - Stop 63", "RTUSESTOP": "86D", "UFI": 317918, "UFI_CR": "2014\/08\/28" }, "geometry": { "type": "Point", "coordinates": [ 145.05224, -37.70735 ] } },
{ "type": "Feature", "properties": { "MET_STOPID": "4183", "TRAMTRKID": "2862", "STOPNUMBER": "62", "ZONES": "Zone 1, Zone 2", "STOPSPEC": "Bundoora MFB - Stop 62", "RTUSESTOP": "86D", "UFI": 317919, "UFI_CR": "2014\/08\/28" }, "geometry": { "type": "Point", "coordinates": [ 145.04899, -37.71048 ] } },
{ "type": "Feature", "properties": { "MET_STOPID": "4185", "TRAMTRKID": "2861", "STOPNUMBER": "61", "ZONES": "Zone 1, Zone 2", "STOPSPEC": "Bundoora Park - Stop 61", "RTUSESTOP": "86D", "UFI": 317920, "UFI_CR": "2014\/08\/28" }, "geometry": { "type": "Point", "coordinates": [ 145.04643, -37.71244 ] } },
{ "type": "Feature", "properties": { "MET_STOPID": "4186", "TRAMTRKID": "2860", "STOPNUMBER": "60", "ZONES": "Zone 1, Zone 2", "STOPSPEC": "La Trobe University - Stop 60", "RTUSESTOP": "86D", "UFI": 317921, "UFI_CR": "2014\/08\/28" }, "geometry": { "type": "Point", "coordinates": [ 145.04305, -37.71681 ] } },
{ "type": "Feature", "properties": { "MET_STOPID": "4187", "TRAMTRKID": "2859", "STOPNUMBER": "59", "ZONES": "Zone 1, Zone 2", "STOPSPEC": "Preston Cemetery - Stop 59", "RTUSESTOP": "86D", "UFI": 317922, "UFI_CR": "2014\/08\/28" }, "geometry": { "type": "Point", "coordinates": [ 145.03963, -37.71898 ] } },
{ "type": "Feature", "properties": { "MET_STOPID": "4188", "TRAMTRKID": "2858", "STOPNUMBER": "58", "ZONES": "Zone 1, Zone 2", "STOPSPEC": "Browning Street - Stop 58", "RTUSESTOP": "86D", "UFI": 317923, "UFI_CR": "2014\/08\/28" }, "geometry": { "type": "Point", "coordinates": [ 145.03695, -37.71997 ] } },
{ "type": "Feature", "properties": { "MET_STOPID": "4189", "TRAMTRKID": "2857", "STOPNUMBER": "57", "ZONES": "Zone 1, Zone 2", "STOPSPEC": "Reservoir District Secondary College - Stop 57", "RTUSESTOP": "86D", "UFI": 317924, "UFI_CR": "2014\/08\/28" }, "geometry": { "type": "Point", "coordinates": [ 145.03007, -37.72269 ] } },
{ "type": "Feature", "properties": { "MET_STOPID": "4190", "TRAMTRKID": "2856", "STOPNUMBER": "56", "ZONES": "Zone 1, Zone 2", "STOPSPEC": "Loddon Avenue - Stop 56", "RTUSESTOP": "86D", "UFI": 317925, "UFI_CR": "2014\/08\/28" }, "geometry": { "type": "Point", "coordinates": [ 145.02785, -37.72399 ] } },
{ "type": "Feature", "properties": { "MET_STOPID": "4191", "TRAMTRKID": "2855", "STOPNUMBER": "55", "ZONES": "Zone 1, Zone 2", "STOPSPEC": "Boldrewood Parade - Stop 55", "RTUSESTOP": "86D", "UFI": 317926, "UFI_CR": "2014\/08\/28" }, "geometry": { "type": "Point", "coordinates": [ 145.0234, -37.72528 ] } },
{ "type": "Feature", "properties": { "MET_STOPID": "4192", "TRAMTRKID": "2854", "STOPNUMBER": "54", "ZONES": "Zone 1, Zone 2", "STOPSPEC": "Chaleyer Street - Stop 54", "RTUSESTOP": "562o, 566o, 567o, 86D", "UFI": 317927, "UFI_CR": "2014\/08\/28" }, "geometry": { "type": "Point", "coordinates": [ 145.02001, -37.72733 ] } },
{ "type": "Feature", "properties": { "MET_STOPID": "4193", "TRAMTRKID": "2853", "STOPNUMBER": "53", "ZONES": "Zone 1, Zone 2", "STOPSPEC": "Ethel Grove - Stop 53", "RTUSESTOP": "86D", "UFI": 317928, "UFI_CR": "2014\/08\/28" }, "geometry": { "type": "Point", "coordinates": [ 145.01721, -37.72913 ] } },
{ "type": "Feature", "properties": { "MET_STOPID": "4194", "TRAMTRKID": "2852", "STOPNUMBER": "52", "ZONES": "Zone 1, Zone 2", "STOPSPEC": "Tyler Street - Stop 52", "RTUSESTOP": "86D", "UFI": 317929, "UFI_CR": "2014\/08\/28" }, "geometry": { "type": "Point", "coordinates": [ 145.01442, -37.73126 ] } },
{ "type": "Feature", "properties": { "MET_STOPID": "4195", "TRAMTRKID": "2851", "STOPNUMBER": "51", "ZONES": "Zone 1", "STOPSPEC": "Wood Street - Stop 51", "RTUSESTOP": "86D", "UFI": 317930, "UFI_CR": "2014\/08\/28" }, "geometry": { "type": "Point", "coordinates": [ 145.01357, -37.73447 ] } },
{ "type": "Feature", "properties": { "MET_STOPID": "4196", "TRAMTRKID": "2850", "STOPNUMBER": "50", "ZONES": "Zone 1", "STOPSPEC": "Sylvester Grove - Stop 50", "RTUSESTOP": "86D", "UFI": 317931, "UFI_CR": "2014\/08\/28" }, "geometry": { "type": "Point", "coordinates": [ 145.01242, -37.73684 ] } },
{ "type": "Feature", "properties": { "MET_STOPID": "4201", "TRAMTRKID": "2845", "STOPNUMBER": "45", "ZONES": "Zone 1", "STOPSPEC": "Bell Street - Stop 45", "RTUSESTOP": "86D", "UFI": 317980, "UFI_CR": "2014\/08\/28" }, "geometry": { "type": "Point", "coordinates": [ 145.00602, -37.74572 ] } },
{ "type": "Feature", "properties": { "MET_STOPID": "4202", "TRAMTRKID": "2844", "STOPNUMBER": "44", "ZONES": "Zone 1", "STOPSPEC": "Seymour Street - Stop 44", "RTUSESTOP": "86D", "UFI": 317981, "UFI_CR": "2014\/08\/28" }, "geometry": { "type": "Point", "coordinates": [ 145.00512, -37.74706 ] } },
{ "type": "Feature", "properties": { "MET_STOPID": "4203", "TRAMTRKID": "2843", "STOPNUMBER": "43", "ZONES": "Zone 1", "STOPSPEC": "Raglan Street - Stop 43", "RTUSESTOP": "86D", "UFI": 317982, "UFI_CR": "2014\/08\/28" }, "geometry": { "type": "Point", "coordinates": [ 145.0037, -37.74918 ] } },
{ "type": "Feature", "properties": { "MET_STOPID": "4204", "TRAMTRKID": "2842", "STOPNUMBER": "42", "ZONES": "Zone 1", "STOPSPEC": "Miller Street - Stop 42", "RTUSESTOP": "86D", "UFI": 317983, "UFI_CR": "2014\/08\/28" }, "geometry": { "type": "Point", "coordinates": [ 145.00158, -37.75238 ] } },
{ "type": "Feature", "properties": { "MET_STOPID": "4205", "TRAMTRKID": "2841", "STOPNUMBER": "41", "ZONES": "Zone 1", "STOPSPEC": "Blythe Street - Stop 41", "RTUSESTOP": "86D", "UFI": 317984, "UFI_CR": "2014\/08\/28" }, "geometry": { "type": "Point", "coordinates": [ 145.00123, -37.75436 ] } },
{ "type": "Feature", "properties": { "MET_STOPID": "4206", "TRAMTRKID": "2840", "STOPNUMBER": "40", "ZONES": "Zone 1", "STOPSPEC": "Mansfield Street - Stop 40", "RTUSESTOP": "86D", "UFI": 317985, "UFI_CR": "2014\/08\/28" }, "geometry": { "type": "Point", "coordinates": [ 145.00083, -37.75672 ] } },
{ "type": "Feature", "properties": { "MET_STOPID": "4323", "TRAMTRKID": "2394", "STOPNUMBER": "127", "ZONES": "Zone 1", "STOPSPEC": "York Street - Stop 127", "RTUSESTOP": "12U", "UFI": 317986, "UFI_CR": "2014\/08\/28" }, "geometry": { "type": "Point", "coordinates": [ 144.959595, -37.830603 ] } },
{ "type": "Feature", "properties": { "MET_STOPID": "4324", "TRAMTRKID": "2393", "STOPNUMBER": "126", "ZONES": "Zone 1", "STOPSPEC": "City Road - Stop 126", "RTUSESTOP": "12U", "UFI": 317987, "UFI_CR": "2014\/08\/28" }, "geometry": { "type": "Point", "coordinates": [ 144.958299, -37.827957 ] } },
{ "type": "Feature", "properties": { "MET_STOPID": "4331", "TRAMTRKID": "2395", "STOPNUMBER": "128", "ZONES": "Zone 1", "STOPSPEC": "Dorcas Street - Stop 128", "RTUSESTOP": "12U", "UFI": 317988, "UFI_CR": "2014\/08\/28" }, "geometry": { "type": "Point", "coordinates": [ 144.960611, -37.83279 ] } },
{ "type": "Feature", "properties": { "MET_STOPID": "4332", "TRAMTRKID": "2396", "STOPNUMBER": "129", "ZONES": "Zone 1", "STOPSPEC": "Park Street - Stop 129", "RTUSESTOP": "12U", "UFI": 317989, "UFI_CR": "2014\/08\/28" }, "geometry": { "type": "Point", "coordinates": [ 144.961641, -37.835056 ] } },
{ "type": "Feature", "properties": { "MET_STOPID": "4333", "TRAMTRKID": "2397", "STOPNUMBER": "130", "ZONES": "Zone 1", "STOPSPEC": "Albert Road - Stop 130", "RTUSESTOP": "12U", "UFI": 317990, "UFI_CR": "2014\/08\/28" }, "geometry": { "type": "Point", "coordinates": [ 144.963387, -37.838985 ] } },
{ "type": "Feature", "properties": { "MET_STOPID": "4484", "TRAMTRKID": "1387", "STOPNUMBER": "47", "ZONES": "Zone 1", "STOPSPEC": "West Preston - Stop 47", "RTUSESTOP": "11D, 11U", "UFI": 317991, "UFI_CR": "2014\/08\/28" }, "geometry": { "type": "Point", "coordinates": [ 144.991589, -37.729183 ] } },
{ "type": "Feature", "properties": { "MET_STOPID": "4485", "TRAMTRKID": "1870", "STOPNUMBER": "70", "ZONES": "Zone 1, Zone 2", "STOPSPEC": "Janefield Drive - Stop 70", "RTUSESTOP": "86U", "UFI": 317992, "UFI_CR": "2014\/08\/28" }, "geometry": { "type": "Point", "coordinates": [ 145.06888, -37.68272 ] } },
{ "type": "Feature", "properties": { "MET_STOPID": "4486", "TRAMTRKID": "1869", "STOPNUMBER": "69", "ZONES": "Zone 1, Zone 2", "STOPSPEC": "Taunton Drive - Stop 69", "RTUSESTOP": "86U", "UFI": 317993, "UFI_CR": "2014\/08\/28" }, "geometry": { "type": "Point", "coordinates": [ 145.06655, -37.68828 ] } },
{ "type": "Feature", "properties": { "MET_STOPID": "4487", "TRAMTRKID": "1868", "STOPNUMBER": "68", "ZONES": "Zone 1, Zone 2", "STOPSPEC": "Greenhills Road - Stop 68", "RTUSESTOP": "86U", "UFI": 317994, "UFI_CR": "2014\/08\/28" }, "geometry": { "type": "Point", "coordinates": [ 145.06301, -37.69195 ] } },
{ "type": "Feature", "properties": { "MET_STOPID": "4488", "TRAMTRKID": "1867", "STOPNUMBER": "67", "ZONES": "Zone 1, Zone 2", "STOPSPEC": "Bundoora Square SC - Stop 67", "RTUSESTOP": "86U", "UFI": 317995, "UFI_CR": "2014\/08\/28" }, "geometry": { "type": "Point", "coordinates": [ 145.05958, -37.69594 ] } },
{ "type": "Feature", "properties": { "MET_STOPID": "4489", "TRAMTRKID": "1866", "STOPNUMBER": "66", "ZONES": "Zone 1, Zone 2", "STOPSPEC": "Settlement Road - Stop 66", "RTUSESTOP": "86U", "UFI": 317996, "UFI_CR": "2014\/08\/28" }, "geometry": { "type": "Point", "coordinates": [ 145.05882, -37.69827 ] } },
{ "type": "Feature", "properties": { "MET_STOPID": "4490", "TRAMTRKID": "1865", "STOPNUMBER": "65", "ZONES": "Zone 1, Zone 2", "STOPSPEC": "Grimshaw Street - Stop 65", "RTUSESTOP": "86U", "UFI": 317997, "UFI_CR": "2014\/08\/28" }, "geometry": { "type": "Point", "coordinates": [ 145.05835, -37.69982 ] } },
{ "type": "Feature", "properties": { "MET_STOPID": "4491", "TRAMTRKID": "1864", "STOPNUMBER": "64", "ZONES": "Zone 1, Zone 2", "STOPSPEC": "Mount Cooper Drive - Stop 64", "RTUSESTOP": "86U", "UFI": 317998, "UFI_CR": "2014\/08\/28" }, "geometry": { "type": "Point", "coordinates": [ 145.05586, -37.7039 ] } },
{ "type": "Feature", "properties": { "MET_STOPID": "4492", "TRAMTRKID": "1863", "STOPNUMBER": "63", "ZONES": "Zone 1, Zone 2", "STOPSPEC": "Greenwood Drive - Stop 63", "RTUSESTOP": "86U", "UFI": 317999, "UFI_CR": "2014\/08\/28" }, "geometry": { "type": "Point", "coordinates": [ 145.05163, -37.70807 ] } },
{ "type": "Feature", "properties": { "MET_STOPID": "4493", "TRAMTRKID": "1862", "STOPNUMBER": "62", "ZONES": "Zone 1, Zone 2", "STOPSPEC": "Bundoora MFB - Stop 62", "RTUSESTOP": "86U", "UFI": 318000, "UFI_CR": "2014\/08\/28" }, "geometry": { "type": "Point", "coordinates": [ 145.0491, -37.71055 ] } },
{ "type": "Feature", "properties": { "MET_STOPID": "4494", "TRAMTRKID": "1861", "STOPNUMBER": "61", "ZONES": "Zone 1, Zone 2", "STOPSPEC": "Bundoora Park - Stop 61", "RTUSESTOP": "86U", "UFI": 318001, "UFI_CR": "2014\/08\/28" }, "geometry": { "type": "Point", "coordinates": [ 145.04545, -37.71331 ] } },
{ "type": "Feature", "properties": { "MET_STOPID": "4495", "TRAMTRKID": "1860", "STOPNUMBER": "60", "ZONES": "Zone 1, Zone 2", "STOPSPEC": "La Trobe University - Stop 60", "RTUSESTOP": "86U", "UFI": 318002, "UFI_CR": "2014\/08\/28" }, "geometry": { "type": "Point", "coordinates": [ 145.04312, -37.71682 ] } },
{ "type": "Feature", "properties": { "MET_STOPID": "4496", "TRAMTRKID": "1859", "STOPNUMBER": "59", "ZONES": "Zone 1, Zone 2", "STOPSPEC": "Preston Cemetery - Stop 59", "RTUSESTOP": "86U", "UFI": 318003, "UFI_CR": "2014\/08\/28" }, "geometry": { "type": "Point", "coordinates": [ 145.03976, -37.71904 ] } },
{ "type": "Feature", "properties": { "MET_STOPID": "4447", "TRAMTRKID": "2407", "STOPNUMBER": "140", "ZONES": "Zone 1", "STOPSPEC": "Fraser Street - Stop 140", "RTUSESTOP": "12U", "UFI": 317956, "UFI_CR": "2014\/08\/28" }, "geometry": { "type": "Point", "coordinates": [ 144.967124, -37.85543 ] } },
{ "type": "Feature", "properties": { "MET_STOPID": "4448", "TRAMTRKID": "2406", "STOPNUMBER": "139", "ZONES": "Zone 1", "STOPSPEC": "Langridge Street - Stop 139", "RTUSESTOP": "12U", "UFI": 317957, "UFI_CR": "2014\/08\/28" }, "geometry": { "type": "Point", "coordinates": [ 144.965304, -37.854468 ] } },
{ "type": "Feature", "properties": { "MET_STOPID": "4449", "TRAMTRKID": "2405", "STOPNUMBER": "138", "ZONES": "Zone 1", "STOPSPEC": "Armstrong Street - Stop 138", "RTUSESTOP": "12U", "UFI": 317958, "UFI_CR": "2014\/08\/28" }, "geometry": { "type": "Point", "coordinates": [ 144.962206, -37.852714 ] } },
{ "type": "Feature", "properties": { "MET_STOPID": "4450", "TRAMTRKID": "1353", "STOPNUMBER": "13", "ZONES": "Zone 1", "STOPSPEC": "Gertrude Street - Stop 13", "RTUSESTOP": "11U", "UFI": 317959, "UFI_CR": "2014\/08\/28" }, "geometry": { "type": "Point", "coordinates": [ 144.97732, -37.805593 ] } },
{ "type": "Feature", "properties": { "MET_STOPID": "4451", "TRAMTRKID": "1354", "STOPNUMBER": "14", "ZONES": "Zone 1", "STOPSPEC": "King William Street - Stop 14", "RTUSESTOP": "11U", "UFI": 317960, "UFI_CR": "2014\/08\/28" }, "geometry": { "type": "Point", "coordinates": [ 144.977803, -37.802705 ] } },
{ "type": "Feature", "properties": { "MET_STOPID": "4452", "TRAMTRKID": "1355", "STOPNUMBER": "15", "ZONES": "Zone 1", "STOPSPEC": "St David Street - Stop 15", "RTUSESTOP": "11U", "UFI": 317961, "UFI_CR": "2014\/08\/28" }, "geometry": { "type": "Point", "coordinates": [ 144.978183, -37.800541 ] } },
{ "type": "Feature", "properties": { "MET_STOPID": "4453", "TRAMTRKID": "1356", "STOPNUMBER": "16", "ZONES": "Zone 1", "STOPSPEC": "Johnston Street - Stop 16", "RTUSESTOP": "11U", "UFI": 317962, "UFI_CR": "2014\/08\/28" }, "geometry": { "type": "Point", "coordinates": [ 144.978587, -37.798169 ] } },
{ "type": "Feature", "properties": { "MET_STOPID": "4454", "TRAMTRKID": "1357", "STOPNUMBER": "17", "ZONES": "Zone 1", "STOPSPEC": "Leicester Street - Stop 17", "RTUSESTOP": "11U", "UFI": 317963, "UFI_CR": "2014\/08\/28" }, "geometry": { "type": "Point", "coordinates": [ 144.979035, -37.795465 ] } },
{ "type": "Feature", "properties": { "MET_STOPID": "4455", "TRAMTRKID": "1358", "STOPNUMBER": "18", "ZONES": "Zone 1", "STOPSPEC": "Alexandra Parade - Stop 18", "RTUSESTOP": "11U", "UFI": 317964, "UFI_CR": "2014\/08\/28" }, "geometry": { "type": "Point", "coordinates": [ 144.979458, -37.792931 ] } },
{ "type": "Feature", "properties": { "MET_STOPID": "4456", "TRAMTRKID": "1359", "STOPNUMBER": "19", "ZONES": "Zone 1", "STOPSPEC": "Newry Street - Stop 19", "RTUSESTOP": "11U", "UFI": 317965, "UFI_CR": "2014\/08\/28" }, "geometry": { "type": "Point", "coordinates": [ 144.979883, -37.790534 ] } },
{ "type": "Feature", "properties": { "MET_STOPID": "4457", "TRAMTRKID": "1360", "STOPNUMBER": "20", "ZONES": "Zone 1", "STOPSPEC": "Fitzroy Bowls Club - Stop 20", "RTUSESTOP": "11U", "UFI": 317966, "UFI_CR": "2014\/08\/28" }, "geometry": { "type": "Point", "coordinates": [ 144.980291, -37.788174 ] } },
{ "type": "Feature", "properties": { "MET_STOPID": "4458", "TRAMTRKID": "1361", "STOPNUMBER": "21", "ZONES": "Zone 1", "STOPSPEC": "Alfred Crescent - Stop 21", "RTUSESTOP": "11U", "UFI": 317967, "UFI_CR": "2014\/08\/28" }, "geometry": { "type": "Point", "coordinates": [ 144.982151, -37.785389 ] } },
{ "type": "Feature", "properties": { "MET_STOPID": "4460", "TRAMTRKID": "1363", "STOPNUMBER": "23", "ZONES": "Zone 1", "STOPSPEC": "Park Street - Stop 23", "RTUSESTOP": "11U", "UFI": 317968, "UFI_CR": "2014\/08\/28" }, "geometry": { "type": "Point", "coordinates": [ 144.985294, -37.781737 ] } },
{ "type": "Feature", "properties": { "MET_STOPID": "4461", "TRAMTRKID": "1364", "STOPNUMBER": "24", "ZONES": "Zone 1", "STOPSPEC": "Holden Street - Stop 24", "RTUSESTOP": "11U", "UFI": 317969, "UFI_CR": "2014\/08\/28" }, "geometry": { "type": "Point", "coordinates": [ 144.986888, -37.779882 ] } },
{ "type": "Feature", "properties": { "MET_STOPID": "4462", "TRAMTRKID": "1365", "STOPNUMBER": "25", "ZONES": "Zone 1", "STOPSPEC": "Miller Street - Stop 25", "RTUSESTOP": "11U", "UFI": 317970, "UFI_CR": "2014\/08\/28" }, "geometry": { "type": "Point", "coordinates": [ 144.988554, -37.777953 ] } },
{ "type": "Feature", "properties": { "MET_STOPID": "4463", "TRAMTRKID": "1366", "STOPNUMBER": "26", "ZONES": "Zone 1", "STOPSPEC": "Clarke Street - Stop 26", "RTUSESTOP": "11U", "UFI": 317971, "UFI_CR": "2014\/08\/28" }, "geometry": { "type": "Point", "coordinates": [ 144.989862, -37.775743 ] } },
{ "type": "Feature", "properties": { "MET_STOPID": "4464", "TRAMTRKID": "1367", "STOPNUMBER": "27", "ZONES": "Zone 1", "STOPSPEC": "Westbourne Grove - Stop 27", "RTUSESTOP": "11U", "UFI": 317972, "UFI_CR": "2014\/08\/28" }, "geometry": { "type": "Point", "coordinates": [ 144.990338, -37.773481 ] } },
{ "type": "Feature", "properties": { "MET_STOPID": "4465", "TRAMTRKID": "1368", "STOPNUMBER": "28", "ZONES": "Zone 1", "STOPSPEC": "Sumner Avenue - Stop 28", "RTUSESTOP": "11U", "UFI": 317973, "UFI_CR": "2014\/08\/28" }, "geometry": { "type": "Point", "coordinates": [ 144.990731, -37.771471 ] } },
{ "type": "Feature", "properties": { "MET_STOPID": "4466", "TRAMTRKID": "1369", "STOPNUMBER": "29", "ZONES": "Zone 1", "STOPSPEC": "Arthurton Road - Stop 29", "RTUSESTOP": "11U", "UFI": 317974, "UFI_CR": "2014\/08\/28" }, "geometry": { "type": "Point", "coordinates": [ 144.991565, -37.768298 ] } },
{ "type": "Feature", "properties": { "MET_STOPID": "4468", "TRAMTRKID": "1370", "STOPNUMBER": "30", "ZONES": "Zone 1", "STOPSPEC": "Gladstone Avenue - Stop 30", "RTUSESTOP": "11U", "UFI": 317975, "UFI_CR": "2014\/08\/28" }, "geometry": { "type": "Point", "coordinates": [ 144.992168, -37.765304 ] } },
{ "type": "Feature", "properties": { "MET_STOPID": "4469", "TRAMTRKID": "1371", "STOPNUMBER": "31", "ZONES": "Zone 1", "STOPSPEC": "Gadd Street - Stop 31", "RTUSESTOP": "11U", "UFI": 317976, "UFI_CR": "2014\/08\/28" }, "geometry": { "type": "Point", "coordinates": [ 144.992728, -37.762691 ] } },
{ "type": "Feature", "properties": { "MET_STOPID": "4470", "TRAMTRKID": "1372", "STOPNUMBER": "32", "ZONES": "Zone 1", "STOPSPEC": "Normanby Avenue - Stop 32", "RTUSESTOP": "11U", "UFI": 317977, "UFI_CR": "2014\/08\/28" }, "geometry": { "type": "Point", "coordinates": [ 144.993556, -37.758581 ] } },
{ "type": "Feature", "properties": { "MET_STOPID": "4471", "TRAMTRKID": "1373", "STOPNUMBER": "33", "ZONES": "Zone 1", "STOPSPEC": "Hutton Street - Stop 33", "RTUSESTOP": "11U", "UFI": 317978, "UFI_CR": "2014\/08\/28" }, "geometry": { "type": "Point", "coordinates": [ 144.994229, -37.755181 ] } },
{ "type": "Feature", "properties": { "MET_STOPID": "4472", "TRAMTRKID": "1374", "STOPNUMBER": "34", "ZONES": "Zone 1", "STOPSPEC": "Miller Street - Stop 34", "RTUSESTOP": "11U", "UFI": 317979, "UFI_CR": "2014\/08\/28" }, "geometry": { "type": "Point", "coordinates": [ 144.994927, -37.75227 ] } },
{ "type": "Feature", "properties": { "MET_STOPID": "4476", "TRAMTRKID": "1378", "STOPNUMBER": "38", "ZONES": "Zone 1", "STOPSPEC": "Oakover Road - Stop 38", "RTUSESTOP": "11U", "UFI": 318016, "UFI_CR": "2014\/08\/28" }, "geometry": { "type": "Point", "coordinates": [ 144.988526, -37.748292 ] } },
{ "type": "Feature", "properties": { "MET_STOPID": "4477", "TRAMTRKID": "1379", "STOPNUMBER": "39", "ZONES": "Zone 1", "STOPSPEC": "Latona Avenue - Stop 39", "RTUSESTOP": "11U", "UFI": 318017, "UFI_CR": "2014\/08\/28" }, "geometry": { "type": "Point", "coordinates": [ 144.988966, -37.745624 ] } },
{ "type": "Feature", "properties": { "MET_STOPID": "4478", "TRAMTRKID": "1380", "STOPNUMBER": "40", "ZONES": "Zone 1", "STOPSPEC": "Bell Street - Stop 40", "RTUSESTOP": "11U", "UFI": 318018, "UFI_CR": "2014\/08\/28" }, "geometry": { "type": "Point", "coordinates": [ 144.98925, -37.743542 ] } },
{ "type": "Feature", "properties": { "MET_STOPID": "4479", "TRAMTRKID": "1381", "STOPNUMBER": "41", "ZONES": "Zone 1", "STOPSPEC": "Bruce Street - Stop 41", "RTUSESTOP": "11U", "UFI": 318019, "UFI_CR": "2014\/08\/28" }, "geometry": { "type": "Point", "coordinates": [ 144.98971, -37.740957 ] } },
{ "type": "Feature", "properties": { "MET_STOPID": "4480", "TRAMTRKID": "1382", "STOPNUMBER": "42", "ZONES": "Zone 1", "STOPSPEC": "Cramer Street - Stop 42", "RTUSESTOP": "11U", "UFI": 318020, "UFI_CR": "2014\/08\/28" }, "geometry": { "type": "Point", "coordinates": [ 144.990027, -37.738906 ] } },
{ "type": "Feature", "properties": { "MET_STOPID": "4481", "TRAMTRKID": "1383", "STOPNUMBER": "43", "ZONES": "Zone 1", "STOPSPEC": "Murray Road - Stop 43", "RTUSESTOP": "11U", "UFI": 318021, "UFI_CR": "2014\/08\/28" }, "geometry": { "type": "Point", "coordinates": [ 144.990416, -37.736465 ] } },
{ "type": "Feature", "properties": { "MET_STOPID": "4482", "TRAMTRKID": "1384", "STOPNUMBER": "44", "ZONES": "Zone 1", "STOPSPEC": "Cooper Street - Stop 44", "RTUSESTOP": "11U", "UFI": 318022, "UFI_CR": "2014\/08\/28" }, "geometry": { "type": "Point", "coordinates": [ 144.990733, -37.734609 ] } },
{ "type": "Feature", "properties": { "MET_STOPID": "4483", "TRAMTRKID": "1385", "STOPNUMBER": "45", "ZONES": "Zone 1", "STOPSPEC": "Jacka Street - Stop 45", "RTUSESTOP": "11U", "UFI": 318023, "UFI_CR": "2014\/08\/28" }, "geometry": { "type": "Point", "coordinates": [ 144.991024, -37.732835 ] } },
{ "type": "Feature", "properties": { "MET_STOPID": "6036", "TRAMTRKID": "2835", "STOPNUMBER": "35", "ZONES": "Zone 1", "STOPSPEC": "Dennis Street - Stop 35", "RTUSESTOP": "86D", "UFI": 318024, "UFI_CR": "2014\/08\/28" }, "geometry": { "type": "Point", "coordinates": [ 144.99929, -37.76566 ] } },
{ "type": "Feature", "properties": { "MET_STOPID": "6037", "TRAMTRKID": "2834", "STOPNUMBER": "34", "ZONES": "Zone 1", "STOPSPEC": "Bent Street - Stop 34", "RTUSESTOP": "86D", "UFI": 318025, "UFI_CR": "2014\/08\/28" }, "geometry": { "type": "Point", "coordinates": [ 144.99912, -37.7677 ] } },
{ "type": "Feature", "properties": { "MET_STOPID": "6038", "TRAMTRKID": "2833", "STOPNUMBER": "33", "ZONES": "Zone 1", "STOPSPEC": "Arthurton Rd - Stop 33", "RTUSESTOP": "86D", "UFI": 318026, "UFI_CR": "2014\/08\/28" }, "geometry": { "type": "Point", "coordinates": [ 144.9989, -37.76941 ] } },
{ "type": "Feature", "properties": { "MET_STOPID": "6039", "TRAMTRKID": "2832", "STOPNUMBER": "32", "ZONES": "Zone 1", "STOPSPEC": "Mitchell Street - Stop 32", "RTUSESTOP": "86D", "UFI": 318027, "UFI_CR": "2014\/08\/28" }, "geometry": { "type": "Point", "coordinates": [ 144.99862, -37.771265 ] } },
{ "type": "Feature", "properties": { "MET_STOPID": "6040", "TRAMTRKID": "2831", "STOPNUMBER": "31", "ZONES": "Zone 1", "STOPSPEC": "Northcote Town Hall - Stop 31", "RTUSESTOP": "86D, 958o", "UFI": 318028, "UFI_CR": "2014\/08\/28" }, "geometry": { "type": "Point", "coordinates": [ 144.99784, -37.77471 ] } },
{ "type": "Feature", "properties": { "MET_STOPID": "6041", "TRAMTRKID": "2830", "STOPNUMBER": "30", "ZONES": "Zone 1", "STOPSPEC": "Clarke Street - Stop 30", "RTUSESTOP": "86D", "UFI": 318029, "UFI_CR": "2014\/08\/28" }, "geometry": { "type": "Point", "coordinates": [ 144.9974, -37.77723 ] } },
{ "type": "Feature", "properties": { "MET_STOPID": "6044", "TRAMTRKID": "2827", "STOPNUMBER": "27", "ZONES": "Zone 1", "STOPSPEC": "Westgarth Street - Stop 27", "RTUSESTOP": "86D", "UFI": 318030, "UFI_CR": "2014\/08\/28" }, "geometry": { "type": "Point", "coordinates": [ 144.996775, -37.780471 ] } },
{ "type": "Feature", "properties": { "MET_STOPID": "6045", "TRAMTRKID": "2826", "STOPNUMBER": "26", "ZONES": "Zone 1", "STOPSPEC": "Walker Street - Stop 26", "RTUSESTOP": "86D", "UFI": 318031, "UFI_CR": "2014\/08\/28" }, "geometry": { "type": "Point", "coordinates": [ 144.99618, -37.78352 ] } },
{ "type": "Feature", "properties": { "MET_STOPID": "6046", "TRAMTRKID": "2825", "STOPNUMBER": "25", "ZONES": "Zone 1", "STOPSPEC": "Clifton Hill Interchange - Stop 25", "RTUSESTOP": "86D", "UFI": 318032, "UFI_CR": "2014\/08\/28" }, "geometry": { "type": "Point", "coordinates": [ 144.99452, -37.78565 ] } },
{ "type": "Feature", "properties": { "MET_STOPID": "6047", "TRAMTRKID": "2824", "STOPNUMBER": "24", "ZONES": "Zone 1", "STOPSPEC": "Michael Street - Stop 24", "RTUSESTOP": "86D", "UFI": 318033, "UFI_CR": "2014\/08\/28" }, "geometry": { "type": "Point", "coordinates": [ 144.99142, -37.78836 ] } },
{ "type": "Feature", "properties": { "MET_STOPID": "6048", "TRAMTRKID": "2823", "STOPNUMBER": "23", "ZONES": "Zone 1", "STOPSPEC": "Wellington Street - Stop 23", "RTUSESTOP": "86D", "UFI": 318034, "UFI_CR": "2014\/08\/28" }, "geometry": { "type": "Point", "coordinates": [ 144.98875, -37.78948 ] } },
{ "type": "Feature", "properties": { "MET_STOPID": "6049", "TRAMTRKID": "2822", "STOPNUMBER": "22", "ZONES": "Zone 1", "STOPSPEC": "Smith Street - Stop 22", "RTUSESTOP": "86D", "UFI": 318035, "UFI_CR": "2014\/08\/28" }, "geometry": { "type": "Point", "coordinates": [ 144.98629, -37.79051 ] } },
{ "type": "Feature", "properties": { "MET_STOPID": "6050", "TRAMTRKID": "2821", "STOPNUMBER": "21", "ZONES": "Zone 1", "STOPSPEC": "Alexandra Parade - Stop 21", "RTUSESTOP": "86D", "UFI": 318036, "UFI_CR": "2014\/08\/28" }, "geometry": { "type": "Point", "coordinates": [ 144.98503, -37.79416 ] } },
{ "type": "Feature", "properties": { "MET_STOPID": "6051", "TRAMTRKID": "2820", "STOPNUMBER": "20", "ZONES": "Zone 1", "STOPSPEC": "Rose Street - Stop 20", "RTUSESTOP": "86D", "UFI": 318037, "UFI_CR": "2014\/08\/28" }, "geometry": { "type": "Point", "coordinates": [ 144.98459, -37.79669 ] } },
{ "type": "Feature", "properties": { "MET_STOPID": "6052", "TRAMTRKID": "2819", "STOPNUMBER": "19", "ZONES": "Zone 1", "STOPSPEC": "Johnston Street - Stop 19", "RTUSESTOP": "86D", "UFI": 318038, "UFI_CR": "2014\/08\/28" }, "geometry": { "type": "Point", "coordinates": [ 144.98419, -37.79906 ] } },
{ "type": "Feature", "properties": { "MET_STOPID": "6053", "TRAMTRKID": "2818", "STOPNUMBER": "18", "ZONES": "Zone 1", "STOPSPEC": "Hodgson Street - Stop 18", "RTUSESTOP": "86D", "UFI": 318039, "UFI_CR": "2014\/08\/28" }, "geometry": { "type": "Point", "coordinates": [ 144.98371, -37.80161 ] } },
{ "type": "Feature", "properties": { "MET_STOPID": "4497", "TRAMTRKID": "1858", "STOPNUMBER": "58", "ZONES": "Zone 1, Zone 2", "STOPSPEC": "Browning Street - Stop 58", "RTUSESTOP": "86U", "UFI": 318004, "UFI_CR": "2014\/08\/28" }, "geometry": { "type": "Point", "coordinates": [ 145.03696, -37.72006 ] } },
{ "type": "Feature", "properties": { "MET_STOPID": "4498", "TRAMTRKID": "1857", "STOPNUMBER": "57", "ZONES": "Zone 1, Zone 2", "STOPSPEC": "Reservoir District Secondary College - Stop 57", "RTUSESTOP": "86U", "UFI": 318005, "UFI_CR": "2014\/08\/28" }, "geometry": { "type": "Point", "coordinates": [ 145.03024, -37.72267 ] } },
{ "type": "Feature", "properties": { "MET_STOPID": "4499", "TRAMTRKID": "1856", "STOPNUMBER": "56", "ZONES": "Zone 1, Zone 2", "STOPSPEC": "Loddon Avenue - Stop 56", "RTUSESTOP": "86U", "UFI": 318006, "UFI_CR": "2014\/08\/28" }, "geometry": { "type": "Point", "coordinates": [ 145.02703, -37.72452 ] } },
{ "type": "Feature", "properties": { "MET_STOPID": "4500", "TRAMTRKID": "1855", "STOPNUMBER": "55", "ZONES": "Zone 1, Zone 2", "STOPSPEC": "Albert Street - Stop 55", "RTUSESTOP": "86U", "UFI": 318007, "UFI_CR": "2014\/08\/28" }, "geometry": { "type": "Point", "coordinates": [ 145.02281, -37.72557 ] } },
{ "type": "Feature", "properties": { "MET_STOPID": "4501", "TRAMTRKID": "1854", "STOPNUMBER": "54", "ZONES": "Zone 1, Zone 2", "STOPSPEC": "McColl Street - Stop 54", "RTUSESTOP": "86U", "UFI": 318008, "UFI_CR": "2014\/08\/28" }, "geometry": { "type": "Point", "coordinates": [ 145.01967, -37.72771 ] } },
{ "type": "Feature", "properties": { "MET_STOPID": "4502", "TRAMTRKID": "1853", "STOPNUMBER": "53", "ZONES": "Zone 1, Zone 2", "STOPSPEC": "Ethel Grove - Stop 53", "RTUSESTOP": "86U", "UFI": 318009, "UFI_CR": "2014\/08\/28" }, "geometry": { "type": "Point", "coordinates": [ 145.01752, -37.72912 ] } },
{ "type": "Feature", "properties": { "MET_STOPID": "4503", "TRAMTRKID": "1852", "STOPNUMBER": "52", "ZONES": "Zone 1, Zone 2", "STOPSPEC": "Tyler Street - Stop 52", "RTUSESTOP": "86U", "UFI": 318010, "UFI_CR": "2014\/08\/28" }, "geometry": { "type": "Point", "coordinates": [ 145.01476, -37.73099 ] } },
{ "type": "Feature", "properties": { "MET_STOPID": "4504", "TRAMTRKID": "1851", "STOPNUMBER": "51", "ZONES": "Zone 1", "STOPSPEC": "Wood Street - Stop 51", "RTUSESTOP": "86U", "UFI": 318011, "UFI_CR": "2014\/08\/28" }, "geometry": { "type": "Point", "coordinates": [ 145.01382, -37.73432 ] } },
{ "type": "Feature", "properties": { "MET_STOPID": "4505", "TRAMTRKID": "1850", "STOPNUMBER": "50", "ZONES": "Zone 1", "STOPSPEC": "Sylvester Grove - Stop 50", "RTUSESTOP": "86U", "UFI": 318012, "UFI_CR": "2014\/08\/28" }, "geometry": { "type": "Point", "coordinates": [ 145.01257, -37.73687 ] } },
{ "type": "Feature", "properties": { "MET_STOPID": "4473", "TRAMTRKID": "1376", "STOPNUMBER": "36", "ZONES": "Zone 1", "STOPSPEC": "Devon Street - Stop 36", "RTUSESTOP": "11U", "UFI": 318013, "UFI_CR": "2014\/08\/28" }, "geometry": { "type": "Point", "coordinates": [ 144.990945, -37.751266 ] } },
{ "type": "Feature", "properties": { "MET_STOPID": "4474", "TRAMTRKID": "1010", "STOPNUMBER": "35", "ZONES": "Zone 1", "STOPSPEC": "St Georges Road - Stop 35", "RTUSESTOP": "11U", "UFI": 318014, "UFI_CR": "2014\/08\/28" }, "geometry": { "type": "Point", "coordinates": [ 144.994792, -37.751643 ] } },
{ "type": "Feature", "properties": { "MET_STOPID": "4475", "TRAMTRKID": "1377", "STOPNUMBER": "37", "ZONES": "Zone 1", "STOPSPEC": "Miller Street - Stop 37", "RTUSESTOP": "11U", "UFI": 318015, "UFI_CR": "2014\/08\/28" }, "geometry": { "type": "Point", "coordinates": [ 144.988128, -37.7506 ] } },
{ "type": "Feature", "properties": { "MET_STOPID": "4945", "TRAMTRKID": "1343", "STOPNUMBER": "43", "ZONES": "Zone 1", "STOPSPEC": "Van Ness Avenue - Stop 43", "RTUSESTOP": "57U, 82U", "UFI": 318064, "UFI_CR": "2014\/08\/28" }, "geometry": { "type": "Point", "coordinates": [ 144.895676, -37.76932 ] } },
{ "type": "Feature", "properties": { "MET_STOPID": "6032", "TRAMTRKID": "2839", "STOPNUMBER": "39", "ZONES": "Zone 1", "STOPSPEC": "Ballantyne Street - Stop 39", "RTUSESTOP": "86D", "UFI": 318065, "UFI_CR": "2014\/08\/28" }, "geometry": { "type": "Point", "coordinates": [ 145.00053, -37.75845 ] } },
{ "type": "Feature", "properties": { "MET_STOPID": "6034", "TRAMTRKID": "2837", "STOPNUMBER": "37", "ZONES": "Zone 1", "STOPSPEC": "Woolton Avenue - Stop 37", "RTUSESTOP": "86D", "UFI": 318066, "UFI_CR": "2014\/08\/28" }, "geometry": { "type": "Point", "coordinates": [ 145.00004, -37.76153 ] } },
{ "type": "Feature", "properties": { "MET_STOPID": "6035", "TRAMTRKID": "2836", "STOPNUMBER": "36", "ZONES": "Zone 1", "STOPSPEC": "Darebin Road - Stop 36", "RTUSESTOP": "86D, 958o", "UFI": 318067, "UFI_CR": "2014\/08\/28" }, "geometry": { "type": "Point", "coordinates": [ 144.99969, -37.76333 ] } },
{ "type": "Feature", "properties": { "MET_STOPID": "6113", "TRAMTRKID": "1832", "STOPNUMBER": "32", "ZONES": "Zone 1", "STOPSPEC": "Mitchell Street - Stop 32", "RTUSESTOP": "86U", "UFI": 318068, "UFI_CR": "2014\/08\/28" }, "geometry": { "type": "Point", "coordinates": [ 144.998599, -37.771372 ] } },
{ "type": "Feature", "properties": { "MET_STOPID": "6114", "TRAMTRKID": "1831", "STOPNUMBER": "31", "ZONES": "Zone 1", "STOPSPEC": "Northcote Town Hall - Stop 31", "RTUSESTOP": "86U", "UFI": 318069, "UFI_CR": "2014\/08\/28" }, "geometry": { "type": "Point", "coordinates": [ 144.99805, -37.77451 ] } },
{ "type": "Feature", "properties": { "MET_STOPID": "6115", "TRAMTRKID": "1830", "STOPNUMBER": "30", "ZONES": "Zone 1", "STOPSPEC": "Clarke Street - Stop 30", "RTUSESTOP": "86U", "UFI": 318070, "UFI_CR": "2014\/08\/28" }, "geometry": { "type": "Point", "coordinates": [ 144.997467, -37.776916 ] } },
{ "type": "Feature", "properties": { "MET_STOPID": "6118", "TRAMTRKID": "1827", "STOPNUMBER": "27", "ZONES": "Zone 1", "STOPSPEC": "Westgarth Street - Stop 27", "RTUSESTOP": "86U", "UFI": 318071, "UFI_CR": "2014\/08\/28" }, "geometry": { "type": "Point", "coordinates": [ 144.9968, -37.78094 ] } },
{ "type": "Feature", "properties": { "MET_STOPID": "6119", "TRAMTRKID": "1826", "STOPNUMBER": "26", "ZONES": "Zone 1", "STOPSPEC": "Walker Street - Stop 26", "RTUSESTOP": "86U", "UFI": 318072, "UFI_CR": "2014\/08\/28" }, "geometry": { "type": "Point", "coordinates": [ 144.99626, -37.78353 ] } },
{ "type": "Feature", "properties": { "MET_STOPID": "6120", "TRAMTRKID": "1825", "STOPNUMBER": "25", "ZONES": "Zone 1", "STOPSPEC": "Clifton Hill Interchange - Stop 25", "RTUSESTOP": "86U", "UFI": 318073, "UFI_CR": "2014\/08\/28" }, "geometry": { "type": "Point", "coordinates": [ 144.99399, -37.78632 ] } },
{ "type": "Feature", "properties": { "MET_STOPID": "6121", "TRAMTRKID": "1824", "STOPNUMBER": "24", "ZONES": "Zone 1", "STOPSPEC": "Gold Street - Stop 24", "RTUSESTOP": "86U", "UFI": 318074, "UFI_CR": "2014\/08\/28" }, "geometry": { "type": "Point", "coordinates": [ 144.99026, -37.78894 ] } },
{ "type": "Feature", "properties": { "MET_STOPID": "6122", "TRAMTRKID": "1823", "STOPNUMBER": "23", "ZONES": "Zone 1", "STOPSPEC": "Wellington Street - Stop 23", "RTUSESTOP": "86U", "UFI": 318075, "UFI_CR": "2014\/08\/28" }, "geometry": { "type": "Point", "coordinates": [ 144.98835, -37.78974 ] } },
{ "type": "Feature", "properties": { "MET_STOPID": "6123", "TRAMTRKID": "1822", "STOPNUMBER": "22", "ZONES": "Zone 1", "STOPSPEC": "Smith Street - Stop 22", "RTUSESTOP": "86U", "UFI": 318076, "UFI_CR": "2014\/08\/28" }, "geometry": { "type": "Point", "coordinates": [ 144.9861, -37.79067 ] } },
{ "type": "Feature", "properties": { "MET_STOPID": "6124", "TRAMTRKID": "1821", "STOPNUMBER": "21", "ZONES": "Zone 1", "STOPSPEC": "Alexandra Parade - Stop 21", "RTUSESTOP": "86U", "UFI": 318077, "UFI_CR": "2014\/08\/28" }, "geometry": { "type": "Point", "coordinates": [ 144.98528, -37.79362 ] } },
{ "type": "Feature", "properties": { "MET_STOPID": "6125", "TRAMTRKID": "1820", "STOPNUMBER": "20", "ZONES": "Zone 1", "STOPSPEC": "Keele Street - Stop 20", "RTUSESTOP": "86U", "UFI": 318078, "UFI_CR": "2014\/08\/28" }, "geometry": { "type": "Point", "coordinates": [ 144.98475, -37.79669 ] } },
{ "type": "Feature", "properties": { "MET_STOPID": "6126", "TRAMTRKID": "1819", "STOPNUMBER": "19", "ZONES": "Zone 1", "STOPSPEC": "Johnston Street - Stop 19", "RTUSESTOP": "86U", "UFI": 318079, "UFI_CR": "2014\/08\/28" }, "geometry": { "type": "Point", "coordinates": [ 144.98438, -37.79884 ] } },
{ "type": "Feature", "properties": { "MET_STOPID": "6127", "TRAMTRKID": "1818", "STOPNUMBER": "18", "ZONES": "Zone 1", "STOPSPEC": "Hodgson Street - Stop 18", "RTUSESTOP": "86U", "UFI": 318080, "UFI_CR": "2014\/08\/28" }, "geometry": { "type": "Point", "coordinates": [ 144.98392, -37.80145 ] } },
{ "type": "Feature", "properties": { "MET_STOPID": "6128", "TRAMTRKID": "1817", "STOPNUMBER": "17", "ZONES": "Zone 1", "STOPSPEC": "Charles Street - Stop 17", "RTUSESTOP": "86U", "UFI": 318081, "UFI_CR": "2014\/08\/28" }, "geometry": { "type": "Point", "coordinates": [ 144.98357, -37.80351 ] } },
{ "type": "Feature", "properties": { "MET_STOPID": "6129", "TRAMTRKID": "1816", "STOPNUMBER": "16", "ZONES": "Zone 1", "STOPSPEC": "Peel Street - Stop 16", "RTUSESTOP": "86U, 958i", "UFI": 318082, "UFI_CR": "2014\/08\/28" }, "geometry": { "type": "Point", "coordinates": [ 144.98335, -37.80486 ] } },
{ "type": "Feature", "properties": { "MET_STOPID": "6130", "TRAMTRKID": "1815", "STOPNUMBER": "15", "ZONES": "Zone 1", "STOPSPEC": "Gertrude Street - Stop 15", "RTUSESTOP": "86U", "UFI": 318083, "UFI_CR": "2014\/08\/28" }, "geometry": { "type": "Point", "coordinates": [ 144.9831, -37.80624 ] } },
{ "type": "Feature", "properties": { "MET_STOPID": "6131", "TRAMTRKID": "1814", "STOPNUMBER": "14", "ZONES": "Zone 1", "STOPSPEC": "Napier Street - Stop 14", "RTUSESTOP": "86U", "UFI": 318084, "UFI_CR": "2014\/08\/28" }, "geometry": { "type": "Point", "coordinates": [ 144.97981, -37.80609 ] } },
{ "type": "Feature", "properties": { "MET_STOPID": "6132", "TRAMTRKID": "1813", "STOPNUMBER": "13", "ZONES": "Zone 1", "STOPSPEC": "Brunswick Street - Stop 13", "RTUSESTOP": "86U, 958i", "UFI": 318085, "UFI_CR": "2014\/08\/28" }, "geometry": { "type": "Point", "coordinates": [ 144.97733, -37.80583 ] } },
{ "type": "Feature", "properties": { "MET_STOPID": "6133", "TRAMTRKID": "2513", "STOPNUMBER": "13", "ZONES": "Zone 1", "STOPSPEC": "Hanover Street - Stop 13", "RTUSESTOP": "96D", "UFI": 318086, "UFI_CR": "2014\/08\/28" }, "geometry": { "type": "Point", "coordinates": [ 144.97401, -37.8029 ] } },
{ "type": "Feature", "properties": { "MET_STOPID": "6134", "TRAMTRKID": "2514", "STOPNUMBER": "14", "ZONES": "Zone 1", "STOPSPEC": "Murchison Street - Stop 14", "RTUSESTOP": "96D", "UFI": 318087, "UFI_CR": "2014\/08\/28" }, "geometry": { "type": "Point", "coordinates": [ 144.97444, -37.80035 ] } },
{ "type": "Feature", "properties": { "MET_STOPID": "6054", "TRAMTRKID": "2817", "STOPNUMBER": "17", "ZONES": "Zone 1", "STOPSPEC": "Charles Street - Stop 17", "RTUSESTOP": "86D, 958o", "UFI": 318040, "UFI_CR": "2014\/08\/28" }, "geometry": { "type": "Point", "coordinates": [ 144.98338, -37.80361 ] } },
{ "type": "Feature", "properties": { "MET_STOPID": "6056", "TRAMTRKID": "2815", "STOPNUMBER": "15", "ZONES": "Zone 1", "STOPSPEC": "Smith Street - Stop 15", "RTUSESTOP": "86D", "UFI": 318041, "UFI_CR": "2014\/08\/28" }, "geometry": { "type": "Point", "coordinates": [ 144.98278, -37.80628 ] } },
{ "type": "Feature", "properties": { "MET_STOPID": "6057", "TRAMTRKID": "2814", "STOPNUMBER": "14", "ZONES": "Zone 1", "STOPSPEC": "Napier Street - Stop 14", "RTUSESTOP": "86D", "UFI": 318042, "UFI_CR": "2014\/08\/28" }, "geometry": { "type": "Point", "coordinates": [ 144.97929, -37.80591 ] } },
{ "type": "Feature", "properties": { "MET_STOPID": "6058", "TRAMTRKID": "2813", "STOPNUMBER": "13", "ZONES": "Zone 1", "STOPSPEC": "Brunswick Street - Stop 13", "RTUSESTOP": "86D", "UFI": 318043, "UFI_CR": "2014\/08\/28" }, "geometry": { "type": "Point", "coordinates": [ 144.97709, -37.80568 ] } },
{ "type": "Feature", "properties": { "MET_STOPID": "6059", "TRAMTRKID": "1513", "STOPNUMBER": "13", "ZONES": "Zone 1", "STOPSPEC": "Hanover Street - Stop 13", "RTUSESTOP": "96U", "UFI": 318044, "UFI_CR": "2014\/08\/28" }, "geometry": { "type": "Point", "coordinates": [ 144.97408, -37.80291 ] } },
{ "type": "Feature", "properties": { "MET_STOPID": "6060", "TRAMTRKID": "1514", "STOPNUMBER": "14", "ZONES": "Zone 1", "STOPSPEC": "Bell Street - Stop 14", "RTUSESTOP": "96U", "UFI": 318045, "UFI_CR": "2014\/08\/28" }, "geometry": { "type": "Point", "coordinates": [ 144.97451, -37.80036 ] } },
{ "type": "Feature", "properties": { "MET_STOPID": "6061", "TRAMTRKID": "1515", "STOPNUMBER": "15", "ZONES": "Zone 1", "STOPSPEC": "Johnston Street - Stop 15", "RTUSESTOP": "96U", "UFI": 318046, "UFI_CR": "2014\/08\/28" }, "geometry": { "type": "Point", "coordinates": [ 144.97483, -37.79852 ] } },
{ "type": "Feature", "properties": { "MET_STOPID": "6062", "TRAMTRKID": "1516", "STOPNUMBER": "16", "ZONES": "Zone 1", "STOPSPEC": "Rose Street - Stop 16", "RTUSESTOP": "96U", "UFI": 318047, "UFI_CR": "2014\/08\/28" }, "geometry": { "type": "Point", "coordinates": [ 144.97539, -37.79525 ] } },
{ "type": "Feature", "properties": { "MET_STOPID": "6063", "TRAMTRKID": "1517", "STOPNUMBER": "17", "ZONES": "Zone 1", "STOPSPEC": "Alexandra Parade - Stop 17", "RTUSESTOP": "96U", "UFI": 318048, "UFI_CR": "2014\/08\/28" }, "geometry": { "type": "Point", "coordinates": [ 144.97581, -37.79276 ] } },
{ "type": "Feature", "properties": { "MET_STOPID": "6064", "TRAMTRKID": "1518", "STOPNUMBER": "18", "ZONES": "Zone 1", "STOPSPEC": "Freeman Street - Stop 18", "RTUSESTOP": "96U", "UFI": 318049, "UFI_CR": "2014\/08\/28" }, "geometry": { "type": "Point", "coordinates": [ 144.9764, -37.78967 ] } },
{ "type": "Feature", "properties": { "MET_STOPID": "6065", "TRAMTRKID": "1519", "STOPNUMBER": "19", "ZONES": "Zone 1", "STOPSPEC": "Tempany Street - Stop 19", "RTUSESTOP": "96U", "UFI": 318050, "UFI_CR": "2014\/08\/28" }, "geometry": { "type": "Point", "coordinates": [ 144.97684, -37.78732 ] } },
{ "type": "Feature", "properties": { "MET_STOPID": "6066", "TRAMTRKID": "1520", "STOPNUMBER": "20", "ZONES": "Zone 1", "STOPSPEC": "Reid Street - Stop 20", "RTUSESTOP": "96U", "UFI": 318051, "UFI_CR": "2014\/08\/28" }, "geometry": { "type": "Point", "coordinates": [ 144.97727, -37.78505 ] } },
{ "type": "Feature", "properties": { "MET_STOPID": "6067", "TRAMTRKID": "1521", "STOPNUMBER": "21", "ZONES": "Zone 1", "STOPSPEC": "Scotchmer Street - Stop 21", "RTUSESTOP": "96U", "UFI": 318052, "UFI_CR": "2014\/08\/28" }, "geometry": { "type": "Point", "coordinates": [ 144.97772, -37.78252 ] } },
{ "type": "Feature", "properties": { "MET_STOPID": "6068", "TRAMTRKID": "1522", "STOPNUMBER": "22", "ZONES": "Zone 1", "STOPSPEC": "Holden Street - Stop 22", "RTUSESTOP": "96U", "UFI": 318053, "UFI_CR": "2014\/08\/28" }, "geometry": { "type": "Point", "coordinates": [ 144.97839, -37.77896 ] } },
{ "type": "Feature", "properties": { "MET_STOPID": "6069", "TRAMTRKID": "1523", "STOPNUMBER": "23", "ZONES": "Zone 1", "STOPSPEC": "Miller Street - Stop 23", "RTUSESTOP": "96U", "UFI": 318054, "UFI_CR": "2014\/08\/28" }, "geometry": { "type": "Point", "coordinates": [ 144.97886, -37.77608 ] } },
{ "type": "Feature", "properties": { "MET_STOPID": "6070", "TRAMTRKID": "1524", "STOPNUMBER": "24", "ZONES": "Zone 1", "STOPSPEC": "Glenlyon Road - Stop 24", "RTUSESTOP": "96U", "UFI": 318055, "UFI_CR": "2014\/08\/28" }, "geometry": { "type": "Point", "coordinates": [ 144.97931, -37.77338 ] } },
{ "type": "Feature", "properties": { "MET_STOPID": "6071", "TRAMTRKID": "1525", "STOPNUMBER": "25", "ZONES": "Zone 1", "STOPSPEC": "Albert Street - Stop 25", "RTUSESTOP": "96U", "UFI": 318056, "UFI_CR": "2014\/08\/28" }, "geometry": { "type": "Point", "coordinates": [ 144.97983, -37.77042 ] } },
{ "type": "Feature", "properties": { "MET_STOPID": "4506", "TRAMTRKID": "1849", "STOPNUMBER": "49", "ZONES": "Zone 1", "STOPSPEC": "Murray Road - Stop 49", "RTUSESTOP": "86U", "UFI": 318057, "UFI_CR": "2014\/08\/28" }, "geometry": { "type": "Point", "coordinates": [ 145.01167, -37.73873 ] } },
{ "type": "Feature", "properties": { "MET_STOPID": "4507", "TRAMTRKID": "1848", "STOPNUMBER": "48", "ZONES": "Zone 1", "STOPSPEC": "Gower Street - Stop 48", "RTUSESTOP": "86U", "UFI": 318058, "UFI_CR": "2014\/08\/28" }, "geometry": { "type": "Point", "coordinates": [ 145.01009, -37.74077 ] } },
{ "type": "Feature", "properties": { "MET_STOPID": "4508", "TRAMTRKID": "1847", "STOPNUMBER": "47", "ZONES": "Zone 1", "STOPSPEC": "David Street - Stop 47", "RTUSESTOP": "86U", "UFI": 318059, "UFI_CR": "2014\/08\/28" }, "geometry": { "type": "Point", "coordinates": [ 145.0084, -37.7429 ] } },
{ "type": "Feature", "properties": { "MET_STOPID": "4509", "TRAMTRKID": "1846", "STOPNUMBER": "46", "ZONES": "Zone 1", "STOPSPEC": "East Preston Tram Depot - Stop 46", "RTUSESTOP": "86U", "UFI": 318060, "UFI_CR": "2014\/08\/28" }, "geometry": { "type": "Point", "coordinates": [ 145.0071, -37.74456 ] } },
{ "type": "Feature", "properties": { "MET_STOPID": "4510", "TRAMTRKID": "1845", "STOPNUMBER": "45", "ZONES": "Zone 1", "STOPSPEC": "Bell Street - Stop 45", "RTUSESTOP": "86U", "UFI": 318061, "UFI_CR": "2014\/08\/28" }, "geometry": { "type": "Point", "coordinates": [ 145.00647, -37.7454 ] } },
{ "type": "Feature", "properties": { "MET_STOPID": "4511", "TRAMTRKID": "1844", "STOPNUMBER": "44", "ZONES": "Zone 1", "STOPSPEC": "Osborne Grove - Stop 44", "RTUSESTOP": "86U", "UFI": 318062, "UFI_CR": "2014\/08\/28" }, "geometry": { "type": "Point", "coordinates": [ 145.00542, -37.74688 ] } },
{ "type": "Feature", "properties": { "MET_STOPID": "4512", "TRAMTRKID": "1843", "STOPNUMBER": "43", "ZONES": "Zone 1", "STOPSPEC": "Raglan Street - Stop 43", "RTUSESTOP": "86U", "UFI": 318063, "UFI_CR": "2014\/08\/28" }, "geometry": { "type": "Point", "coordinates": [ 145.00372, -37.74944 ] } },
{ "type": "Feature", "properties": { "MET_STOPID": "14728", "TRAMTRKID": "2153", "STOPNUMBER": "31", "ZONES": "Zone 1", "STOPSPEC": "Chapel Street - Stop 31", "RTUSESTOP": "6U", "UFI": 318112, "UFI_CR": "2014\/08\/28" }, "geometry": { "type": "Point", "coordinates": [ 144.993535, -37.851948 ] } },
{ "type": "Feature", "properties": { "MET_STOPID": "15559", "TRAMTRKID": "1345", "STOPNUMBER": "45", "ZONES": "Zone 1", "STOPSPEC": "Randall Street - Stop 45", "RTUSESTOP": "57U, 82U", "UFI": 318113, "UFI_CR": "2014\/08\/28" }, "geometry": { "type": "Point", "coordinates": [ 144.888937, -37.768631 ] } },
{ "type": "Feature", "properties": { "MET_STOPID": "15699", "TRAMTRKID": "2154", "STOPNUMBER": "32", "ZONES": "Zone 1", "STOPSPEC": "Bangs Street - Stop 32", "RTUSESTOP": "6U", "UFI": 318114, "UFI_CR": "2014\/08\/28" }, "geometry": { "type": "Point", "coordinates": [ 144.996531, -37.852353 ] } },
{ "type": "Feature", "properties": { "MET_STOPID": "16610", "TRAMTRKID": "2155", "STOPNUMBER": "33", "ZONES": "Zone 1", "STOPSPEC": "The Avenue - Stop 33", "RTUSESTOP": "6U", "UFI": 318115, "UFI_CR": "2014\/08\/28" }, "geometry": { "type": "Point", "coordinates": [ 144.998606, -37.852622 ] } },
{ "type": "Feature", "properties": { "MET_STOPID": "16713", "TRAMTRKID": "2434", "STOPNUMBER": "34", "ZONES": "Zone 1", "STOPSPEC": "Bell Street - Stop 34", "RTUSESTOP": "19D", "UFI": 318116, "UFI_CR": "2014\/08\/28" }, "geometry": { "type": "Point", "coordinates": [ 144.966471, -37.741474 ] } },
{ "type": "Feature", "properties": { "MET_STOPID": "16714", "TRAMTRKID": "2433", "STOPNUMBER": "33", "ZONES": "Zone 1", "STOPSPEC": "Victoria Street - Stop 33", "RTUSESTOP": "19D", "UFI": 318117, "UFI_CR": "2014\/08\/28" }, "geometry": { "type": "Point", "coordinates": [ 144.966152, -37.743257 ] } },
{ "type": "Feature", "properties": { "MET_STOPID": "16715", "TRAMTRKID": "2432", "STOPNUMBER": "32", "ZONES": "Zone 1", "STOPSPEC": "Munro Street - Stop 32", "RTUSESTOP": "19D", "UFI": 318118, "UFI_CR": "2014\/08\/28" }, "geometry": { "type": "Point", "coordinates": [ 144.965834, -37.745065 ] } },
{ "type": "Feature", "properties": { "MET_STOPID": "16716", "TRAMTRKID": "2431", "STOPNUMBER": "31", "ZONES": "Zone 1", "STOPSPEC": "Reynard Street - Stop 31", "RTUSESTOP": "19D", "UFI": 318119, "UFI_CR": "2014\/08\/28" }, "geometry": { "type": "Point", "coordinates": [ 144.965208, -37.748736 ] } },
{ "type": "Feature", "properties": { "MET_STOPID": "16717", "TRAMTRKID": "2430", "STOPNUMBER": "30", "ZONES": "Zone 1", "STOPSPEC": "The Avenue - Stop 30", "RTUSESTOP": "19D", "UFI": 318120, "UFI_CR": "2014\/08\/28" }, "geometry": { "type": "Point", "coordinates": [ 144.964638, -37.752071 ] } },
{ "type": "Feature", "properties": { "MET_STOPID": "16718", "TRAMTRKID": "2156", "STOPNUMBER": "34", "ZONES": "Zone 1", "STOPSPEC": "Lewisham Road - Stop 34", "RTUSESTOP": "6U", "UFI": 318121, "UFI_CR": "2014\/08\/28" }, "geometry": { "type": "Point", "coordinates": [ 145.000108, -37.852831 ] } },
{ "type": "Feature", "properties": { "MET_STOPID": "16719", "TRAMTRKID": "2428", "STOPNUMBER": "28", "ZONES": "Zone 1", "STOPSPEC": "Moreland Road - Stop 28", "RTUSESTOP": "19D", "UFI": 318122, "UFI_CR": "2014\/08\/28" }, "geometry": { "type": "Point", "coordinates": [ 144.964016, -37.755637 ] } },
{ "type": "Feature", "properties": { "MET_STOPID": "16720", "TRAMTRKID": "2427", "STOPNUMBER": "27", "ZONES": "Zone 1", "STOPSPEC": "Brunswick Tram Depot - Stop 27", "RTUSESTOP": "19D", "UFI": 318123, "UFI_CR": "2014\/08\/28" }, "geometry": { "type": "Point", "coordinates": [ 144.963637, -37.757812 ] } },
{ "type": "Feature", "properties": { "MET_STOPID": "16721", "TRAMTRKID": "2426", "STOPNUMBER": "26", "ZONES": "Zone 1", "STOPSPEC": "Albion Street - Stop 26", "RTUSESTOP": "19D", "UFI": 318124, "UFI_CR": "2014\/08\/28" }, "geometry": { "type": "Point", "coordinates": [ 144.963091, -37.760963 ] } },
{ "type": "Feature", "properties": { "MET_STOPID": "16722", "TRAMTRKID": "2425", "STOPNUMBER": "25", "ZONES": "Zone 1", "STOPSPEC": "Stewart Street - Stop 25", "RTUSESTOP": "19D, 956o", "UFI": 318125, "UFI_CR": "2014\/08\/28" }, "geometry": { "type": "Point", "coordinates": [ 144.962698, -37.763233 ] } },
{ "type": "Feature", "properties": { "MET_STOPID": "16723", "TRAMTRKID": "2424", "STOPNUMBER": "24", "ZONES": "Zone 1", "STOPSPEC": "Blyth Street - Stop 24", "RTUSESTOP": "19D", "UFI": 318126, "UFI_CR": "2014\/08\/28" }, "geometry": { "type": "Point", "coordinates": [ 144.962304, -37.765581 ] } },
{ "type": "Feature", "properties": { "MET_STOPID": "16724", "TRAMTRKID": "2423", "STOPNUMBER": "23", "ZONES": "Zone 1", "STOPSPEC": "Victoria Street - Stop 23", "RTUSESTOP": "19D", "UFI": 318127, "UFI_CR": "2014\/08\/28" }, "geometry": { "type": "Point", "coordinates": [ 144.962032, -37.767142 ] } },
{ "type": "Feature", "properties": { "MET_STOPID": "16725", "TRAMTRKID": "2422", "STOPNUMBER": "22", "ZONES": "Zone 1", "STOPSPEC": "Albert Street - Stop 22", "RTUSESTOP": "19D", "UFI": 318128, "UFI_CR": "2014\/08\/28" }, "geometry": { "type": "Point", "coordinates": [ 144.961719, -37.768949 ] } },
{ "type": "Feature", "properties": { "MET_STOPID": "16726", "TRAMTRKID": "2421", "STOPNUMBER": "21", "ZONES": "Zone 1", "STOPSPEC": "Dawson Street - Stop 21", "RTUSESTOP": "19D", "UFI": 318129, "UFI_CR": "2014\/08\/28" }, "geometry": { "type": "Point", "coordinates": [ 144.961264, -37.771645 ] } },
{ "type": "Feature", "properties": { "MET_STOPID": "16727", "TRAMTRKID": "2420", "STOPNUMBER": "20", "ZONES": "Zone 1", "STOPSPEC": "Barkly Square - Stop 20", "RTUSESTOP": "19D", "UFI": 318130, "UFI_CR": "2014\/08\/28" }, "geometry": { "type": "Point", "coordinates": [ 144.960738, -37.774839 ] } },
{ "type": "Feature", "properties": { "MET_STOPID": "16728", "TRAMTRKID": "2419", "STOPNUMBER": "19", "ZONES": "Zone 1", "STOPSPEC": "Brunswick Road - Stop 19", "RTUSESTOP": "19D", "UFI": 318131, "UFI_CR": "2014\/08\/28" }, "geometry": { "type": "Point", "coordinates": [ 144.960329, -37.777294 ] } },
{ "type": "Feature", "properties": { "MET_STOPID": "16729", "TRAMTRKID": "2418", "STOPNUMBER": "18", "ZONES": "Zone 1", "STOPSPEC": "Princes Park - Stop 18", "RTUSESTOP": "19D", "UFI": 318132, "UFI_CR": "2014\/08\/28" }, "geometry": { "type": "Point", "coordinates": [ 144.959938, -37.779381 ] } },
{ "type": "Feature", "properties": { "MET_STOPID": "16730", "TRAMTRKID": "2417", "STOPNUMBER": "17", "ZONES": "Zone 1", "STOPSPEC": "Ievers Street - Stop 17", "RTUSESTOP": "19D", "UFI": 318133, "UFI_CR": "2014\/08\/28" }, "geometry": { "type": "Point", "coordinates": [ 144.959644, -37.78189 ] } },
{ "type": "Feature", "properties": { "MET_STOPID": "16731", "TRAMTRKID": "2416", "STOPNUMBER": "16", "ZONES": "Zone 1", "STOPSPEC": "Walker Street - Stop 16", "RTUSESTOP": "19D", "UFI": 318134, "UFI_CR": "2014\/08\/28" }, "geometry": { "type": "Point", "coordinates": [ 144.95927, -37.784859 ] } },
{ "type": "Feature", "properties": { "MET_STOPID": "16732", "TRAMTRKID": "2415", "STOPNUMBER": "15", "ZONES": "Zone 1", "STOPSPEC": "Leonard Street - Stop 15", "RTUSESTOP": "19D", "UFI": 318135, "UFI_CR": "2014\/08\/28" }, "geometry": { "type": "Point", "coordinates": [ 144.95889, -37.787929 ] } },
{ "type": "Feature", "properties": { "MET_STOPID": "6135", "TRAMTRKID": "2515", "STOPNUMBER": "15", "ZONES": "Zone 1", "STOPSPEC": "Elgin Street - Stop 15", "RTUSESTOP": "96D", "UFI": 318088, "UFI_CR": "2014\/08\/28" }, "geometry": { "type": "Point", "coordinates": [ 144.97493, -37.79754 ] } },
{ "type": "Feature", "properties": { "MET_STOPID": "6136", "TRAMTRKID": "2516", "STOPNUMBER": "16", "ZONES": "Zone 1", "STOPSPEC": "Kay Street - Stop 16", "RTUSESTOP": "96D", "UFI": 318089, "UFI_CR": "2014\/08\/28" }, "geometry": { "type": "Point", "coordinates": [ 144.97532, -37.79524 ] } },
{ "type": "Feature", "properties": { "MET_STOPID": "6137", "TRAMTRKID": "2517", "STOPNUMBER": "17", "ZONES": "Zone 1", "STOPSPEC": "Princes Street - Stop 17", "RTUSESTOP": "96D", "UFI": 318090, "UFI_CR": "2014\/08\/28" }, "geometry": { "type": "Point", "coordinates": [ 144.97568, -37.79321 ] } },
{ "type": "Feature", "properties": { "MET_STOPID": "6138", "TRAMTRKID": "2518", "STOPNUMBER": "18", "ZONES": "Zone 1", "STOPSPEC": "Curtain Street - Stop 18", "RTUSESTOP": "96D", "UFI": 318091, "UFI_CR": "2014\/08\/28" }, "geometry": { "type": "Point", "coordinates": [ 144.97633, -37.78966 ] } },
{ "type": "Feature", "properties": { "MET_STOPID": "6139", "TRAMTRKID": "2519", "STOPNUMBER": "19", "ZONES": "Zone 1", "STOPSPEC": "Tempany Street - Stop 19", "RTUSESTOP": "96D", "UFI": 318092, "UFI_CR": "2014\/08\/28" }, "geometry": { "type": "Point", "coordinates": [ 144.97678, -37.78731 ] } },
{ "type": "Feature", "properties": { "MET_STOPID": "6140", "TRAMTRKID": "2520", "STOPNUMBER": "20", "ZONES": "Zone 1", "STOPSPEC": "Richardson Street - Stop 20", "RTUSESTOP": "96D", "UFI": 318093, "UFI_CR": "2014\/08\/28" }, "geometry": { "type": "Point", "coordinates": [ 144.97715, -37.78525 ] } },
{ "type": "Feature", "properties": { "MET_STOPID": "6141", "TRAMTRKID": "2521", "STOPNUMBER": "21", "ZONES": "Zone 1", "STOPSPEC": "Pigdon Street - Stop 21", "RTUSESTOP": "96D", "UFI": 318094, "UFI_CR": "2014\/08\/28" }, "geometry": { "type": "Point", "coordinates": [ 144.97762, -37.78274 ] } },
{ "type": "Feature", "properties": { "MET_STOPID": "6142", "TRAMTRKID": "2522", "STOPNUMBER": "22", "ZONES": "Zone 1", "STOPSPEC": "Brunswick Road - Stop 22", "RTUSESTOP": "96D", "UFI": 318095, "UFI_CR": "2014\/08\/28" }, "geometry": { "type": "Point", "coordinates": [ 144.97822, -37.77918 ] } },
{ "type": "Feature", "properties": { "MET_STOPID": "6143", "TRAMTRKID": "2523", "STOPNUMBER": "23", "ZONES": "Zone 1", "STOPSPEC": "Miller Street - Stop 23", "RTUSESTOP": "96D", "UFI": 318096, "UFI_CR": "2014\/08\/28" }, "geometry": { "type": "Point", "coordinates": [ 144.97862, -37.77637 ] } },
{ "type": "Feature", "properties": { "MET_STOPID": "6144", "TRAMTRKID": "2524", "STOPNUMBER": "24", "ZONES": "Zone 1", "STOPSPEC": "Glenlyon Road - Stop 24", "RTUSESTOP": "96D", "UFI": 318097, "UFI_CR": "2014\/08\/28" }, "geometry": { "type": "Point", "coordinates": [ 144.97908, -37.77361 ] } },
{ "type": "Feature", "properties": { "MET_STOPID": "6145", "TRAMTRKID": "2525", "STOPNUMBER": "25", "ZONES": "Zone 1", "STOPSPEC": "Albert Street - Stop 25", "RTUSESTOP": "96D", "UFI": 318098, "UFI_CR": "2014\/08\/28" }, "geometry": { "type": "Point", "coordinates": [ 144.97963, -37.77053 ] } },
{ "type": "Feature", "properties": { "MET_STOPID": "6146", "TRAMTRKID": "2526", "STOPNUMBER": "26", "ZONES": "Zone 1", "STOPSPEC": "Victoria Street - Stop 26", "RTUSESTOP": "96D", "UFI": 318099, "UFI_CR": "2014\/08\/28" }, "geometry": { "type": "Point", "coordinates": [ 144.97988, -37.76902 ] } },
{ "type": "Feature", "properties": { "MET_STOPID": "6147", "TRAMTRKID": "1527", "STOPNUMBER": "27", "ZONES": "Zone 1", "STOPSPEC": "East Brunswick - Stop 27", "RTUSESTOP": "96D, 96U", "UFI": 318100, "UFI_CR": "2014\/08\/28" }, "geometry": { "type": "Point", "coordinates": [ 144.98022, -37.76747 ] } },
{ "type": "Feature", "properties": { "MET_STOPID": "6072", "TRAMTRKID": "1526", "STOPNUMBER": "26", "ZONES": "Zone 1", "STOPSPEC": "Victoria Street - Stop 26", "RTUSESTOP": "96U", "UFI": 318101, "UFI_CR": "2014\/08\/28" }, "geometry": { "type": "Point", "coordinates": [ 144.98009, -37.76876 ] } },
{ "type": "Feature", "properties": { "MET_STOPID": "6103", "TRAMTRKID": "1842", "STOPNUMBER": "42", "ZONES": "Zone 1", "STOPSPEC": "Dundas Street - Stop 42", "RTUSESTOP": "86U", "UFI": 318102, "UFI_CR": "2014\/08\/28" }, "geometry": { "type": "Point", "coordinates": [ 145.002, -37.75198 ] } },
{ "type": "Feature", "properties": { "MET_STOPID": "6104", "TRAMTRKID": "1841", "STOPNUMBER": "41", "ZONES": "Zone 1", "STOPSPEC": "Collins Street - Stop 41", "RTUSESTOP": "86U", "UFI": 318103, "UFI_CR": "2014\/08\/28" }, "geometry": { "type": "Point", "coordinates": [ 145.00137, -37.75455 ] } },
{ "type": "Feature", "properties": { "MET_STOPID": "6105", "TRAMTRKID": "1840", "STOPNUMBER": "40", "ZONES": "Zone 1", "STOPSPEC": "Mansfield Street - Stop 40", "RTUSESTOP": "86U", "UFI": 318104, "UFI_CR": "2014\/08\/28" }, "geometry": { "type": "Point", "coordinates": [ 145.00105, -37.7567 ] } },
{ "type": "Feature", "properties": { "MET_STOPID": "6106", "TRAMTRKID": "1839", "STOPNUMBER": "39", "ZONES": "Zone 1", "STOPSPEC": "Gooch Street - Stop 39", "RTUSESTOP": "86U", "UFI": 318105, "UFI_CR": "2014\/08\/28" }, "geometry": { "type": "Point", "coordinates": [ 145.00074, -37.75836 ] } },
{ "type": "Feature", "properties": { "MET_STOPID": "6107", "TRAMTRKID": "1838", "STOPNUMBER": "38", "ZONES": "Zone 1", "STOPSPEC": "Clarendon Street - Stop 38", "RTUSESTOP": "86U", "UFI": 318106, "UFI_CR": "2014\/08\/28" }, "geometry": { "type": "Point", "coordinates": [ 145.000445, -37.759443 ] } },
{ "type": "Feature", "properties": { "MET_STOPID": "6108", "TRAMTRKID": "1837", "STOPNUMBER": "37", "ZONES": "Zone 1", "STOPSPEC": "Woolton Avenue - Stop 37", "RTUSESTOP": "86U", "UFI": 318107, "UFI_CR": "2014\/08\/28" }, "geometry": { "type": "Point", "coordinates": [ 145.00026, -37.76124 ] } },
{ "type": "Feature", "properties": { "MET_STOPID": "6109", "TRAMTRKID": "1836", "STOPNUMBER": "36", "ZONES": "Zone 1", "STOPSPEC": "Darebin Road - Stop 36", "RTUSESTOP": "86U", "UFI": 318108, "UFI_CR": "2014\/08\/28" }, "geometry": { "type": "Point", "coordinates": [ 144.99995, -37.76315 ] } },
{ "type": "Feature", "properties": { "MET_STOPID": "6110", "TRAMTRKID": "1835", "STOPNUMBER": "35", "ZONES": "Zone 1", "STOPSPEC": "Dennis Street - Stop 35", "RTUSESTOP": "86U", "UFI": 318109, "UFI_CR": "2014\/08\/28" }, "geometry": { "type": "Point", "coordinates": [ 144.99953, -37.76556 ] } },
{ "type": "Feature", "properties": { "MET_STOPID": "6111", "TRAMTRKID": "1834", "STOPNUMBER": "34", "ZONES": "Zone 1", "STOPSPEC": "McCutcheon Street - Stop 34", "RTUSESTOP": "86U", "UFI": 318110, "UFI_CR": "2014\/08\/28" }, "geometry": { "type": "Point", "coordinates": [ 144.99928, -37.76747 ] } },
{ "type": "Feature", "properties": { "MET_STOPID": "6112", "TRAMTRKID": "1833", "STOPNUMBER": "33", "ZONES": "Zone 1", "STOPSPEC": "Separation Street - Stop 33", "RTUSESTOP": "86U", "UFI": 318111, "UFI_CR": "2014\/08\/28" }, "geometry": { "type": "Point", "coordinates": [ 144.99912, -37.76926 ] } },
{ "type": "Feature", "properties": { "MET_STOPID": "16759", "TRAMTRKID": "1173", "STOPNUMBER": "51", "ZONES": "Zone 1", "STOPSPEC": "Burke Road - Stop 51", "RTUSESTOP": "6D", "UFI": 318160, "UFI_CR": "2014\/08\/28" }, "geometry": { "type": "Point", "coordinates": [ 145.051208, -37.859309 ] } },
{ "type": "Feature", "properties": { "MET_STOPID": "16760", "TRAMTRKID": "1172", "STOPNUMBER": "50", "ZONES": "Zone 1", "STOPSPEC": "Erica Avenue - Stop 50", "RTUSESTOP": "6D", "UFI": 318161, "UFI_CR": "2014\/08\/28" }, "geometry": { "type": "Point", "coordinates": [ 145.048258, -37.858943 ] } },
{ "type": "Feature", "properties": { "MET_STOPID": "16761", "TRAMTRKID": "1171", "STOPNUMBER": "49", "ZONES": "Zone 1", "STOPSPEC": "Harold Holt Swim Centre - Stop 49", "RTUSESTOP": "6D", "UFI": 318162, "UFI_CR": "2014\/08\/28" }, "geometry": { "type": "Point", "coordinates": [ 145.044194, -37.858457 ] } },
{ "type": "Feature", "properties": { "MET_STOPID": "16762", "TRAMTRKID": "1170", "STOPNUMBER": "48", "ZONES": "Zone 1", "STOPSPEC": "Tooronga Road - Stop 48", "RTUSESTOP": "6D", "UFI": 318163, "UFI_CR": "2014\/08\/28" }, "geometry": { "type": "Point", "coordinates": [ 145.041048, -37.858077 ] } },
{ "type": "Feature", "properties": { "MET_STOPID": "16764", "TRAMTRKID": "1169", "STOPNUMBER": "47", "ZONES": "Zone 1", "STOPSPEC": "Dixon Street - Stop 47", "RTUSESTOP": "6D", "UFI": 318164, "UFI_CR": "2014\/08\/28" }, "geometry": { "type": "Point", "coordinates": [ 145.038017, -37.857698 ] } },
{ "type": "Feature", "properties": { "MET_STOPID": "16765", "TRAMTRKID": "1168", "STOPNUMBER": "46", "ZONES": "Zone 1", "STOPSPEC": "Fraser Street - Stop 46", "RTUSESTOP": "6D", "UFI": 318165, "UFI_CR": "2014\/08\/28" }, "geometry": { "type": "Point", "coordinates": [ 145.035613, -37.857387 ] } },
{ "type": "Feature", "properties": { "MET_STOPID": "16766", "TRAMTRKID": "1167", "STOPNUMBER": "45", "ZONES": "Zone 1", "STOPSPEC": "De La Salle College - Stop 45", "RTUSESTOP": "6D", "UFI": 318166, "UFI_CR": "2014\/08\/28" }, "geometry": { "type": "Point", "coordinates": [ 145.032378, -37.856943 ] } },
{ "type": "Feature", "properties": { "MET_STOPID": "16767", "TRAMTRKID": "1166", "STOPNUMBER": "44", "ZONES": "Zone 1", "STOPSPEC": "Glenferrie Road - Stop 44", "RTUSESTOP": "6D", "UFI": 318167, "UFI_CR": "2014\/08\/28" }, "geometry": { "type": "Point", "coordinates": [ 145.029166, -37.856536 ] } },
{ "type": "Feature", "properties": { "MET_STOPID": "16768", "TRAMTRKID": "1165", "STOPNUMBER": "43", "ZONES": "Zone 1", "STOPSPEC": "Mercer Road - Stop 43", "RTUSESTOP": "6D", "UFI": 318168, "UFI_CR": "2014\/08\/28" }, "geometry": { "type": "Point", "coordinates": [ 145.025937, -37.856121 ] } },
{ "type": "Feature", "properties": { "MET_STOPID": "16769", "TRAMTRKID": "1164", "STOPNUMBER": "42", "ZONES": "Zone 1", "STOPSPEC": "Huntingtower Road - Stop 42", "RTUSESTOP": "6D", "UFI": 318169, "UFI_CR": "2014\/08\/28" }, "geometry": { "type": "Point", "coordinates": [ 145.023668, -37.855831 ] } },
{ "type": "Feature", "properties": { "MET_STOPID": "16770", "TRAMTRKID": "1163", "STOPNUMBER": "41", "ZONES": "Zone 1", "STOPSPEC": "Kooyong Road - Stop 41", "RTUSESTOP": "6D", "UFI": 318170, "UFI_CR": "2014\/08\/28" }, "geometry": { "type": "Point", "coordinates": [ 145.020584, -37.85542 ] } },
{ "type": "Feature", "properties": { "MET_STOPID": "16771", "TRAMTRKID": "1162", "STOPNUMBER": "40", "ZONES": "Zone 1", "STOPSPEC": "Armadale Station - Stop 40", "RTUSESTOP": "6D", "UFI": 318171, "UFI_CR": "2014\/08\/28" }, "geometry": { "type": "Point", "coordinates": [ 145.018252, -37.855122 ] } },
{ "type": "Feature", "properties": { "MET_STOPID": "16772", "TRAMTRKID": "1161", "STOPNUMBER": "39", "ZONES": "Zone 1", "STOPSPEC": "Auburn Grove - Stop 39", "RTUSESTOP": "6D", "UFI": 318172, "UFI_CR": "2014\/08\/28" }, "geometry": { "type": "Point", "coordinates": [ 145.014969, -37.854684 ] } },
{ "type": "Feature", "properties": { "MET_STOPID": "16773", "TRAMTRKID": "1160", "STOPNUMBER": "38", "ZONES": "Zone 1", "STOPSPEC": "Orrong Road - Stop 38", "RTUSESTOP": "6D", "UFI": 318173, "UFI_CR": "2014\/08\/28" }, "geometry": { "type": "Point", "coordinates": [ 145.011454, -37.854216 ] } },
{ "type": "Feature", "properties": { "MET_STOPID": "16774", "TRAMTRKID": "1159", "STOPNUMBER": "37", "ZONES": "Zone 1", "STOPSPEC": "Airlie Avenue - Stop 37", "RTUSESTOP": "6D", "UFI": 318174, "UFI_CR": "2014\/08\/28" }, "geometry": { "type": "Point", "coordinates": [ 145.008657, -37.853863 ] } },
{ "type": "Feature", "properties": { "MET_STOPID": "16775", "TRAMTRKID": "1158", "STOPNUMBER": "36", "ZONES": "Zone 1", "STOPSPEC": "Park Road - Stop 36", "RTUSESTOP": "6D", "UFI": 318175, "UFI_CR": "2014\/08\/28" }, "geometry": { "type": "Point", "coordinates": [ 145.006276, -37.853555 ] } },
{ "type": "Feature", "properties": { "MET_STOPID": "16776", "TRAMTRKID": "1157", "STOPNUMBER": "35", "ZONES": "Zone 1", "STOPSPEC": "Williams Road - Stop 35", "RTUSESTOP": "6D", "UFI": 318176, "UFI_CR": "2014\/08\/28" }, "geometry": { "type": "Point", "coordinates": [ 145.002322, -37.853008 ] } },
{ "type": "Feature", "properties": { "MET_STOPID": "16777", "TRAMTRKID": "1156", "STOPNUMBER": "34", "ZONES": "Zone 1", "STOPSPEC": "Lewisham Road - Stop 34", "RTUSESTOP": "6D", "UFI": 318177, "UFI_CR": "2014\/08\/28" }, "geometry": { "type": "Point", "coordinates": [ 144.99969, -37.852648 ] } },
{ "type": "Feature", "properties": { "MET_STOPID": "16743", "TRAMTRKID": "2162", "STOPNUMBER": "40", "ZONES": "Zone 1", "STOPSPEC": "Armadale Station - Stop 40", "RTUSESTOP": "6U", "UFI": 318178, "UFI_CR": "2014\/08\/28" }, "geometry": { "type": "Point", "coordinates": [ 145.018408, -37.855275 ] } },
{ "type": "Feature", "properties": { "MET_STOPID": "16744", "TRAMTRKID": "2163", "STOPNUMBER": "41", "ZONES": "Zone 1", "STOPSPEC": "Kooyong Road - Stop 41", "RTUSESTOP": "6U", "UFI": 318179, "UFI_CR": "2014\/08\/28" }, "geometry": { "type": "Point", "coordinates": [ 145.020804, -37.855586 ] } },
{ "type": "Feature", "properties": { "MET_STOPID": "16745", "TRAMTRKID": "2164", "STOPNUMBER": "42", "ZONES": "Zone 1", "STOPSPEC": "Huntingtower Road - Stop 42", "RTUSESTOP": "6U", "UFI": 318180, "UFI_CR": "2014\/08\/28" }, "geometry": { "type": "Point", "coordinates": [ 145.023829, -37.855992 ] } },
{ "type": "Feature", "properties": { "MET_STOPID": "16746", "TRAMTRKID": "2165", "STOPNUMBER": "43", "ZONES": "Zone 1", "STOPSPEC": "Mercer Road - Stop 43", "RTUSESTOP": "6U", "UFI": 318181, "UFI_CR": "2014\/08\/28" }, "geometry": { "type": "Point", "coordinates": [ 145.026231, -37.856286 ] } },
{ "type": "Feature", "properties": { "MET_STOPID": "16747", "TRAMTRKID": "2166", "STOPNUMBER": "44", "ZONES": "Zone 1", "STOPSPEC": "Glenferrie Road - Stop 44", "RTUSESTOP": "6U", "UFI": 318182, "UFI_CR": "2014\/08\/28" }, "geometry": { "type": "Point", "coordinates": [ 145.029499, -37.856705 ] } },
{ "type": "Feature", "properties": { "MET_STOPID": "16748", "TRAMTRKID": "2167", "STOPNUMBER": "45", "ZONES": "Zone 1", "STOPSPEC": "De La Salle College - Stop 45", "RTUSESTOP": "6U", "UFI": 318183, "UFI_CR": "2014\/08\/28" }, "geometry": { "type": "Point", "coordinates": [ 145.032888, -37.857158 ] } },
{ "type": "Feature", "properties": { "MET_STOPID": "16733", "TRAMTRKID": "2414", "STOPNUMBER": "14", "ZONES": "Zone 1", "STOPSPEC": "Macarthur Road - Stop 14", "RTUSESTOP": "19D", "UFI": 318136, "UFI_CR": "2014\/08\/28" }, "geometry": { "type": "Point", "coordinates": [ 144.958615, -37.790014 ] } },
{ "type": "Feature", "properties": { "MET_STOPID": "16734", "TRAMTRKID": "2413", "STOPNUMBER": "13", "ZONES": "Zone 1", "STOPSPEC": "Gatehouse Street - Stop 13", "RTUSESTOP": "19D", "UFI": 318137, "UFI_CR": "2014\/08\/28" }, "geometry": { "type": "Point", "coordinates": [ 144.958314, -37.792677 ] } },
{ "type": "Feature", "properties": { "MET_STOPID": "16735", "TRAMTRKID": "2412", "STOPNUMBER": "12", "ZONES": "Zone 1", "STOPSPEC": "Morrah Street - Stop 12", "RTUSESTOP": "19D", "UFI": 318138, "UFI_CR": "2014\/08\/28" }, "geometry": { "type": "Point", "coordinates": [ 144.957946, -37.795658 ] } },
{ "type": "Feature", "properties": { "MET_STOPID": "16736", "TRAMTRKID": "3811", "STOPNUMBER": "11", "ZONES": "Zone 1", "STOPSPEC": "Melbourne University - Stop 11", "RTUSESTOP": "19D", "UFI": 318139, "UFI_CR": "2014\/08\/28" }, "geometry": { "type": "Point", "coordinates": [ 144.957651, -37.798271 ] } },
{ "type": "Feature", "properties": { "MET_STOPID": "16738", "TRAMTRKID": "2157", "STOPNUMBER": "35", "ZONES": "Zone 1", "STOPSPEC": "Williams Road - Stop 35", "RTUSESTOP": "6U", "UFI": 318140, "UFI_CR": "2014\/08\/28" }, "geometry": { "type": "Point", "coordinates": [ 145.00262, -37.853169 ] } },
{ "type": "Feature", "properties": { "MET_STOPID": "16739", "TRAMTRKID": "2158", "STOPNUMBER": "36", "ZONES": "Zone 1", "STOPSPEC": "Chatsworth Road - Stop 36", "RTUSESTOP": "6U", "UFI": 318141, "UFI_CR": "2014\/08\/28" }, "geometry": { "type": "Point", "coordinates": [ 145.006876, -37.853762 ] } },
{ "type": "Feature", "properties": { "MET_STOPID": "16740", "TRAMTRKID": "2159", "STOPNUMBER": "37", "ZONES": "Zone 1", "STOPSPEC": "Airlie Avenue - Stop 37", "RTUSESTOP": "6U", "UFI": 318142, "UFI_CR": "2014\/08\/28" }, "geometry": { "type": "Point", "coordinates": [ 145.008687, -37.853995 ] } },
{ "type": "Feature", "properties": { "MET_STOPID": "16741", "TRAMTRKID": "2160", "STOPNUMBER": "38", "ZONES": "Zone 1", "STOPSPEC": "Orrong Road - Stop 38", "RTUSESTOP": "6U", "UFI": 318143, "UFI_CR": "2014\/08\/28" }, "geometry": { "type": "Point", "coordinates": [ 145.011708, -37.854385 ] } },
{ "type": "Feature", "properties": { "MET_STOPID": "16742", "TRAMTRKID": "2161", "STOPNUMBER": "39", "ZONES": "Zone 1", "STOPSPEC": "Auburn Grove - Stop 39", "RTUSESTOP": "6U", "UFI": 318144, "UFI_CR": "2014\/08\/28" }, "geometry": { "type": "Point", "coordinates": [ 145.015352, -37.854869 ] } },
{ "type": "Feature", "properties": { "MET_STOPID": "7354", "TRAMTRKID": "1143", "STOPNUMBER": "48", "ZONES": "Zone 1", "STOPSPEC": "Dixon Street - Stop 48", "RTUSESTOP": "5D", "UFI": 318145, "UFI_CR": "2014\/08\/28" }, "geometry": { "type": "Point", "coordinates": [ 145.036632, -37.863394 ] } },
{ "type": "Feature", "properties": { "MET_STOPID": "8345", "TRAMTRKID": "1142", "STOPNUMBER": "47", "ZONES": "Zone 1", "STOPSPEC": "Cabrini Hospital - Stop 47", "RTUSESTOP": "5D", "UFI": 318146, "UFI_CR": "2014\/08\/28" }, "geometry": { "type": "Point", "coordinates": [ 145.033435, -37.862973 ] } },
{ "type": "Feature", "properties": { "MET_STOPID": "9156", "TRAMTRKID": "1141", "STOPNUMBER": "46", "ZONES": "Zone 1", "STOPSPEC": "Soudan Street - Stop 46", "RTUSESTOP": "5D", "UFI": 318147, "UFI_CR": "2014\/08\/28" }, "geometry": { "type": "Point", "coordinates": [ 145.030955, -37.862657 ] } },
{ "type": "Feature", "properties": { "MET_STOPID": "10311", "TRAMTRKID": "1140", "STOPNUMBER": "45", "ZONES": "Zone 1", "STOPSPEC": "Glenferrie Road - Stop 45", "RTUSESTOP": "5D", "UFI": 318148, "UFI_CR": "2014\/08\/28" }, "geometry": { "type": "Point", "coordinates": [ 145.02819, -37.862294 ] } },
{ "type": "Feature", "properties": { "MET_STOPID": "10371", "TRAMTRKID": "1139", "STOPNUMBER": "44", "ZONES": "Zone 1", "STOPSPEC": "Duncraig Avenue - Stop 44", "RTUSESTOP": "5D", "UFI": 318149, "UFI_CR": "2014\/08\/28" }, "geometry": { "type": "Point", "coordinates": [ 145.025089, -37.861895 ] } },
{ "type": "Feature", "properties": { "MET_STOPID": "11285", "TRAMTRKID": "1138", "STOPNUMBER": "43", "ZONES": "Zone 1", "STOPSPEC": "Egerton Road - Stop 43", "RTUSESTOP": "5D", "UFI": 318150, "UFI_CR": "2014\/08\/28" }, "geometry": { "type": "Point", "coordinates": [ 145.0227, -37.86159 ] } },
{ "type": "Feature", "properties": { "MET_STOPID": "12599", "TRAMTRKID": "1137", "STOPNUMBER": "42", "ZONES": "Zone 1", "STOPSPEC": "Kooyong Road - Stop 42", "RTUSESTOP": "5D", "UFI": 318151, "UFI_CR": "2014\/08\/28" }, "geometry": { "type": "Point", "coordinates": [ 145.019617, -37.861185 ] } },
{ "type": "Feature", "properties": { "MET_STOPID": "13401", "TRAMTRKID": "2150", "STOPNUMBER": "28", "ZONES": "Zone 1", "STOPSPEC": "Punt Road - Stop 28", "RTUSESTOP": "6U", "UFI": 318152, "UFI_CR": "2014\/08\/28" }, "geometry": { "type": "Point", "coordinates": [ 144.984373, -37.850758 ] } },
{ "type": "Feature", "properties": { "MET_STOPID": "13995", "TRAMTRKID": "1344", "STOPNUMBER": "44", "ZONES": "Zone 1", "STOPSPEC": "Barb Street - Stop 44", "RTUSESTOP": "57U, 82U", "UFI": 318153, "UFI_CR": "2014\/08\/28" }, "geometry": { "type": "Point", "coordinates": [ 144.89198, -37.768895 ] } },
{ "type": "Feature", "properties": { "MET_STOPID": "14033", "TRAMTRKID": "2151", "STOPNUMBER": "29", "ZONES": "Zone 1", "STOPSPEC": "Perth Street - Stop 29", "RTUSESTOP": "6U", "UFI": 318154, "UFI_CR": "2014\/08\/28" }, "geometry": { "type": "Point", "coordinates": [ 144.987928, -37.851211 ] } },
{ "type": "Feature", "properties": { "MET_STOPID": "14614", "TRAMTRKID": "2152", "STOPNUMBER": "30", "ZONES": "Zone 1", "STOPSPEC": "Prahran Station - Stop 30", "RTUSESTOP": "6U", "UFI": 318155, "UFI_CR": "2014\/08\/28" }, "geometry": { "type": "Point", "coordinates": [ 144.989302, -37.851388 ] } },